[{"id":"44a751a9-e83b-4a31-82f6-6c893a38ec4b","name":"2Schools Consortium","code":"T92","type":"scitt","ukprn":10045988,"isAccreditedProvider":true,"accreditedProviderId":5606,"address":{"addressLine1":"Oakthorpe Primary School","addressLine2":"c/o Tile Kiln Lane","addressLine3":"Palmers Green","town":"London","postcode":"N13 6BY"},"location":{"latitude":51.614508,"longitude":-0.09093599999999999,"regionCode":"H"},"contact":{"website":"http://www.2schools.org/","email":"training@oakthorpe.enfield.sch.uk","telephone":"020 8807 6906"},"canSponsorSkilledWorkerVisa":false,"canSponsorStudentVisa":false},{"id":"12f9c84a-43fc-43a2-ab3d-e000647843b1","name":"AA Teamworks West Yorkshire SCITT","code":"2AT","type":"scitt","ukprn":10032342,"isAccreditedProvider":true,"accreditedProviderId":5697,"address":{"addressLine1":"West Vale Primary School","addressLine2":"Stainland Road, Greetland,","town":"Halifax","county":"West Yorkshire","postcode":"HX4 8LS"},"location":{"latitude":53.6894988,"longitude":-1.8520482,"regionCode":"D"},"contact":{"website":"https://aateamworksscitt.org/","email":"enquiries@teamworkstsa.org","telephone":"07828 886534"},"canSponsorSkilledWorkerVisa":false,"canSponsorStudentVisa":false},{"id":"3cba92c2-cc73-4f42-9241-cab798ea6fa5","name":"Alban Federation","code":"1MN","type":"scitt","urn":70182,"ukprn":10058506,"isAccreditedProvider":true,"address":{"addressLine1":"c/o Sandringham School","addressLine2":"The Ridgeway","town":"St Albans","county":"Hertfordshire","postcode":"AL4 9NX"},"location":{"latitude":51.770763,"longitude":-0.3078306,"regionCode":"G"},"contact":{"website":"www.albanfederation.com","email":"afgtpenquiries@sandringham.herts.sch.uk","telephone":"01727 799560"},"canSponsorSkilledWorkerVisa":false,"canSponsorStudentVisa":false},{"id":"69deab24-7cc6-40ec-8e33-a8379e46ee10","name":"Ambition Institute","code":"2A2","type":"scitt","ukprn":10063586,"isAccreditedProvider":true,"location":{"regionCode":"H"},"contact":{"email":"genevieve.field@ambition.org.uk","telephone":"07896 696959"},"canSponsorSkilledWorkerVisa":false,"canSponsorStudentVisa":false},{"id":"67e1d15d-c3b8-4da6-9c79-7644f4892c45","name":"Anglia Ruskin University","code":"A60","type":"university","urn":133803,"ukprn":10000291,"isAccreditedProvider":true,"address":{"addressLine1":"Anglia Ruskin University","addressLine2":"Bishop Hall Lane","town":"Chelmsford","county":"Essex","postcode":"CM1 1SQ"},"location":{"latitude":51.7413813,"longitude":0.4744948,"regionCode":"G"},"contact":{"website":"www.anglia.ac.uk"}},{"id":"cd13eaec-268a-4bca-9a42-f0a5f9101320","name":"ARK Teacher Training","code":"1CS","type":"scitt","urn":135600,"ukprn":10044534,"isAccreditedProvider":true,"accreditedProviderId":5635,"address":{"addressLine1":"The Yellow Building","addressLine2":"1 Nicholas Road","town":"London","postcode":"W114AN"},"location":{"latitude":51.510515,"longitude":-0.2187324,"regionCode":"H"},"contact":{"website":"http://www.arkteachertraining.org","email":"teachertraining@arkonline.org","telephone":"020 3116 6353"},"canSponsorSkilledWorkerVisa":false,"canSponsorStudentVisa":false},{"id":"01ade065-6da9-4a73-9e65-f3153b0115b3","name":"Arthur Terry SCITT","code":"A67","type":"scitt","ukprn":10034759,"isAccreditedProvider":true,"accreditedProviderId":5583,"address":{"addressLine1":"Kittoe Road","addressLine2":"Sutton Coldfield","town":"Sutton Coldfield","county":"West Midlands","postcode":"B74 4RZ"},"location":{"latitude":52.5895797,"longitude":-1.8362151,"regionCode":"F"},"contact":{"website":"www.atnts.com","email":"northbirminghamtsh@atlp.org.uk","telephone":"0121 323 1128"},"canSponsorSkilledWorkerVisa":false,"canSponsorStudentVisa":false},{"id":"0e7feda3-bc5b-4bfe-aee0-a520b95269eb","name":"Ashton on Mersey School SCITT","code":"24L","type":"scitt","ukprn":10055366,"isAccreditedProvider":true,"accreditedProviderId":5638,"address":{"addressLine1":"Cecil Avenue","town":"Sale","county":"Cheshire","postcode":"M33 5BP"},"location":{"latitude":53.4194494,"longitude":-2.3389918,"regionCode":"B"},"contact":{"website":"https://aomscitt.co.uk/","email":"aomscitt@aom.trafford.sch.uk","telephone":"0161 9731179"},"canSponsorSkilledWorkerVisa":false,"canSponsorStudentVisa":false},{"id":"d14eb8c5-3aec-486f-91f9-d2f9c3751162","name":"Associated Merseyside Partnership SCITT","code":"25F","type":"scitt","ukprn":10055360,"isAccreditedProvider":true,"accreditedProviderId":5670,"address":{"addressLine1":"Associated Merseyside Partnership SCITT","addressLine2":"Building 1000, Vortex Court, Enterprise Way","addressLine3":"Wavertree Technology Park","town":"Liverpool","county":"Merseyside","postcode":"L13 1FB"},"location":{"latitude":53.4041197,"longitude":-2.9299552,"regionCode":"B"},"contact":{"website":"http://amp-scitt.lydiatelearningtrust.co.uk/","email":"teachertraining@ampscitt.co.uk","telephone":"0151 8324340"},"canSponsorSkilledWorkerVisa":false,"canSponsorStudentVisa":false},{"id":"d22dfe15-94b0-4aca-937c-25ff932edf93","name":"Astra SCITT","code":"28E","type":"scitt","ukprn":10032610,"isAccreditedProvider":true,"accreditedProviderId":5689,"address":{"addressLine1":"Dr Challoner's Grammar School","addressLine2":"Chesham Rd","town":"Amersham","county":"Buckinghamshire","postcode":"HP6 5HA"},"location":{"latitude":51.676064,"longitude":-0.6105184,"regionCode":"J"},"contact":{"website":"http://astra-alliance.com","email":"sue@astra-alliance.com","telephone":"01494 787573"},"canSponsorSkilledWorkerVisa":false,"canSponsorStudentVisa":false},{"id":"0e53008f-b4bc-4898-8d5c-4bf136bf3ca1","name":"Barr Beacon SCITT","code":"2AX","type":"scitt","ukprn":10053216,"isAccreditedProvider":true,"accreditedProviderId":5694,"address":{"addressLine1":"Barr Beacon SCITT","addressLine2":"Old Hall Lane","town":"Walsall","county":"West Midlands","postcode":"WS9 0RF"},"location":{"latitude":52.5625404,"longitude":-1.9154734,"regionCode":"F"},"contact":{"website":"http://bbscitt.co.uk/","email":"info@bbscitt.co.uk","telephone":"0121 366 6600"},"canSponsorSkilledWorkerVisa":false,"canSponsorStudentVisa":false},{"id":"90514c28-bbb8-44d4-aca4-7307d46e2c97","name":"Bath Spa University","code":"B20","type":"university","urn":133790,"ukprn":10000571,"isAccreditedProvider":true,"accreditedProviderId":1502,"address":{"addressLine1":"Newton Park Campus","addressLine2":"Newton St Loe","town":"Bath","county":"Bath and North East Somerset","postcode":"BA2 9BN"},"location":{"latitude":51.3732085,"longitude":-2.4409117,"regionCode":"K"},"contact":{"website":"https://www.bathspa.ac.uk/how-to-apply/teacher-training/","email":"teaching@bathspa.ac.uk","telephone":"01225 876180"},"canSponsorSkilledWorkerVisa":false,"canSponsorStudentVisa":true},{"id":"5ce2bdbf-3026-410e-b605-15f1cc380f82","name":"BEC Teacher Training","code":"B28","type":"scitt","ukprn":10058882,"isAccreditedProvider":false,"address":{"addressLine1":"c/o The Bromfords School","addressLine2":"Grange Avenue","town":"Wickford","county":"Essex","postcode":"SS12 0LZ"},"location":{"latitude":51.6055174,"longitude":0.510282,"regionCode":"G"},"contact":{"website":"www.billericayscitt.com","email":"louise@billericayscitt.com","telephone":"01268 477611"},"canSponsorSkilledWorkerVisa":false,"canSponsorStudentVisa":false},{"id":"41164d27-f161-4a0f-b07c-fcf19fe53cc2","name":"Best Practice Network","code":"6B1","type":"scitt","ukprn":10019464,"isAccreditedProvider":true,"address":{"addressLine1":"Newminster House","addressLine2":"27-29 Baldwin Street","town":"Bristol","postcode":"BS1 1LT"},"location":{"latitude":51.4535427,"longitude":-2.594928,"regionCode":"K"},"contact":{"website":"https://www.bestpracticenet.co.uk/initial-teacher-training","email":"teach@bestpracticenet.co.uk","telephone":"0117 920 9200"},"canSponsorSkilledWorkerVisa":false,"canSponsorStudentVisa":false},{"id":"39d2a26d-88c2-4559-9d7a-43ae0fe5527e","name":"Birmingham City University","code":"B25","type":"university","urn":133788,"ukprn":10007140,"isAccreditedProvider":true,"accreditedProviderId":1541,"address":{"addressLine1":"15 Bartholomew Row","addressLine2":"City Centre","town":"Birmingham","county":"West Midlands","postcode":"B5 5JU"},"location":{"latitude":52.4822117,"longitude":-1.8888867,"regionCode":"F"},"contact":{"website":"https://www.bcu.ac.uk/education","email":"courseenquiries@bcu.ac.uk","telephone":"0121 331 5595"},"canSponsorSkilledWorkerVisa":false,"canSponsorStudentVisa":true},{"id":"639e0bfd-244f-438c-9e3f-7844cd8c2b92","name":"Bishop Burton College","code":"5B2","type":"university","ukprn":10000721,"isAccreditedProvider":true,"location":{"regionCode":"D"},"contact":{"email":"hannah.finch@bishopburton.ac.uk","telephone":"01964 553028"}},{"id":"5fc9e4fe-aaf2-41c3-98cc-7cdd0c641742","name":"Bishop Grosseteste University","code":"B38","type":"university","urn":133835,"ukprn":10007811,"isAccreditedProvider":true,"accreditedProviderId":1503,"address":{"addressLine1":"Longdales Road","town":"Lincoln","county":"Lincolnshire","postcode":"LN1 3DY"},"location":{"latitude":53.2435632,"longitude":-0.5371389999999999,"regionCode":"D"},"contact":{"website":"https://www.bgu.ac.uk/","email":"enquiries@bishopg.ac.uk","telephone":"01522 583658"},"canSponsorSkilledWorkerVisa":false,"canSponsorStudentVisa":true},{"id":"0c0dd7e1-df47-4594-916b-e9fd858ede2a","name":"Bishop's Stortford SCITT","code":"26T","type":"scitt","ukprn":10059068,"isAccreditedProvider":false,"address":{"addressLine1":"c/o Leventhorpe","addressLine2":"Cambridge Road","town":"Sawbridgeworth","county":"Hertfordshire","postcode":"CM21 9BY"},"location":{"latitude":51.8208347,"longitude":0.1493451,"regionCode":"G"},"contact":{"website":"http://www.bsetscitt.co.uk/","email":"jya@leventhorpe.net","telephone":"01279 603 104"},"canSponsorSkilledWorkerVisa":false,"canSponsorStudentVisa":false},{"id":"6af3c281-bd7d-44dc-bf0f-6961920f9918","name":"Bluecoat SCITT Alliance Nottingham","code":"1YH","type":"scitt","ukprn":10052837,"isAccreditedProvider":true,"accreditedProviderId":5646,"address":{"addressLine1":"Bluecoat SCITT Alliance Nottingham","addressLine2":"C/O Bluecoat Aspley Academy, Aspley Lane","town":"Nottingham","county":"Nottinghamshire","postcode":"NG8 5GY"},"location":{"latitude":52.96848319999999,"longitude":-1.191032,"regionCode":"E"},"contact":{"website":"https://www.bluecoatscittalliance.uk.com/","email":"itt@bluecoat.uk.com","telephone":"0115 9007230"},"canSponsorSkilledWorkerVisa":false,"canSponsorStudentVisa":false},{"id":"7016ffd9-e1c3-4340-ba79-7e2504c83f1f","name":"Bournemouth Bay Teacher Training Partnership","code":"B52","type":"scitt","ukprn":10055369,"isAccreditedProvider":true,"accreditedProviderId":5575,"address":{"addressLine1":"Avon Campus, Twynham TGS","addressLine2":"Redvers Road","town":"Christchurch","county":"Dorset","postcode":"BH23 3AU"},"location":{"latitude":50.74091629999999,"longitude":-1.7556651,"regionCode":"K"},"contact":{"website":"www.bpdscitt.org.uk","email":"scitt@twynhamschool.com","telephone":"01202 402790"},"canSponsorSkilledWorkerVisa":false,"canSponsorStudentVisa":false},{"id":"e047b282-3247-4ae4-96db-9d08d67fd42b","name":"Bradford Birth to 19 SCITT","code":"259","type":"scitt","ukprn":10047807,"isAccreditedProvider":true,"accreditedProviderId":5672,"address":{"addressLine1":"Bradford Birth to 19 SCITT","addressLine2":"St Edmund's Nursery School","addressLine3":"Washington Street","town":"Bradford","postcode":"BD8 9QW"},"location":{"latitude":53.8017638,"longitude":-1.7887957,"regionCode":"D"},"contact":{"website":"https://www.bradfordbirthto19.co.uk/scitt","email":"scitt@bradfordbirthto19.org","telephone":"01274 494898"},"canSponsorSkilledWorkerVisa":false,"canSponsorStudentVisa":false},{"id":"c68e18a8-2e33-4136-854d-c809613967eb","name":"Bradford College","code":"B60","type":"scitt","ukprn":10000840,"isAccreditedProvider":false,"address":{"addressLine1":"Great Horton Road","town":"Bradford","county":"West Yorkshire","postcode":"BD7 1AY"},"location":{"latitude":53.791677,"longitude":-1.7681111,"regionCode":"D"},"contact":{"website":"https://www.bradfordcollege.ac.uk/apply/degrees/","email":"admissions@bradfordcollege.ac.uk","telephone":"01274 088088"},"canSponsorSkilledWorkerVisa":false,"canSponsorStudentVisa":false},{"id":"e008e084-093e-4c24-a3ae-dfa43dadd4af","name":"Bright Futures SCITT","code":"G65","type":"scitt","ukprn":10046414,"isAccreditedProvider":true,"accreditedProviderId":5649,"address":{"addressLine1":"c/o AGGS The Lodge House","addressLine2":"Cavendish Road","town":"Altrincham","county":"Altrincham","postcode":"WA14 2NJ"},"location":{"latitude":53.3817573,"longitude":-2.3584159,"regionCode":"B"},"contact":{"website":"https://www.bright-futures.co.uk/development-network/bright-futures-scitt/","email":"admin@scitt.bright-futures.co.uk","telephone":"0161 823 7073"},"canSponsorSkilledWorkerVisa":false,"canSponsorStudentVisa":false},{"id":"6ed03c54-9f0c-4fa3-a4df-330e1985133e","name":"Bromley Schools Collegiate","code":"B91","type":"scitt","ukprn":10033362,"isAccreditedProvider":true,"address":{"addressLine1":"Bromley Schools' Collegiate, Hayes Secondary School","addressLine2":"West Common Road","addressLine3":"Hayes","town":"Bromley","county":"Kent","postcode":"BR2 7DB"},"location":{"latitude":51.3739758,"longitude":0.0189309,"regionCode":"H"},"contact":{"website":"http://www.bscteach.co.uk","email":"administrator@gradteach.co.uk","telephone":"020 8300 6566"},"canSponsorSkilledWorkerVisa":false,"canSponsorStudentVisa":false},{"id":"29ea933c-5c71-4bf8-85cf-ae9c23ff7ed9","name":"Brunel University London","code":"B84","type":"university","ukprn":10000961,"isAccreditedProvider":false,"address":{"addressLine1":"Brunel University","addressLine2":"Kingston Lane","town":"Uxbridge","county":"Middlesex","postcode":"UB8 3PH"},"location":{"latitude":51.5328384,"longitude":-0.4728557,"regionCode":"H"},"contact":{"website":"https://www.brunel.ac.uk/education/postgraduate-programmes/ite-pgce-programmes","email":"education-admissions@brunel.ac.uk","telephone":"01895 265265"},"canSponsorSkilledWorkerVisa":false,"canSponsorStudentVisa":true},{"id":"a4a5cc79-316e-4eaf-99e8-956637abe73c","name":"Buckingham Partnership","code":"B71","type":"scitt","ukprn":10035071,"isAccreditedProvider":true,"address":{"addressLine1":"The Buckingham Partnership","addressLine2":"Units A and B - Bourton Business Park","town":"Buckingham","county":"Buckingham","postcode":"MK18 7DS"},"location":{"latitude":51.9957578,"longitude":-0.9651459,"regionCode":"J"},"contact":{"website":"http://www.bpscitt.uk","email":"olewis@royallatin.org","telephone":"01280 852040"},"canSponsorSkilledWorkerVisa":false,"canSponsorStudentVisa":false},{"id":"02b85d2e-e316-4cf3-937e-bcc2f6c1163c","name":"Buile Hill VA College SCITT","code":"1WT","type":"scitt","isAccreditedProvider":true,"address":{"addressLine1":"Buile Hill VA College SCITT","addressLine2":"Eccles Old Road","town":"Salford","postcode":"M6 8RD"},"location":{"latitude":53.4938999,"longitude":-2.302702,"regionCode":"B"},"contact":{"website":"http://builehillvisualartscollege.co.uk"}},{"id":"9a1ace79-f3fe-4a0e-9154-bbc22ad55ed6","name":"Cabot Learning Federation SCITT","code":"2AV","type":"scitt","ukprn":10049578,"isAccreditedProvider":true,"address":{"addressLine1":"CLF Institute","addressLine2":"Russell Town Avenue","town":"Bristol","county":"Bristol","postcode":"BS5 9JH"},"location":{"latitude":51.4601964,"longitude":-2.562168,"regionCode":"K"},"contact":{"website":"https://institute.clf.uk/train-to-teach/","email":"katharine.alcock@clf.cabot.ac.uk","telephone":"01172 446233"},"canSponsorSkilledWorkerVisa":false,"canSponsorStudentVisa":false},{"id":"9e78c458-1ae4-4a5e-8ca5-464352eb49e7","name":"Cambridge Training School Network, CTSN SCITT","code":"1WO","type":"scitt","ukprn":10055220,"isAccreditedProvider":true,"accreditedProviderId":5630,"address":{"addressLine1":"Comberton Village College","addressLine2":"West Street","town":"Cambridge","county":"Cambridgeshire","postcode":"CB23 7DU"},"location":{"latitude":52.1847351,"longitude":0.010441,"regionCode":"G"},"contact":{"website":"https://ctsnscitt.info","email":"scitt@catrust.co.uk","telephone":"01223 262503 x223"},"canSponsorSkilledWorkerVisa":false,"canSponsorStudentVisa":false},{"id":"21f47243-39f3-4181-b88d-1091d6d8c7af","name":"Canterbury Christ Church University","code":"C10","type":"university","urn":133806,"ukprn":10001143,"isAccreditedProvider":true,"accreditedProviderId":1505,"address":{"addressLine1":"North Holmes Road","town":"Canterbury","county":"Kent","postcode":"CT1 1QU"},"location":{"latitude":51.2796426,"longitude":1.0893643,"regionCode":"J"},"contact":{"website":"https://www.canterbury.ac.uk/study-here/train-to-teach/train-to-teach.aspx","email":"PGadmissions@canterbury.ac.uk","telephone":"01227 926699"},"canSponsorSkilledWorkerVisa":false,"canSponsorStudentVisa":true},{"id":"7de06936-d1c1-4b82-9004-d12db2edae53","name":"Carmel Teacher Training Partnership (CTTP)","code":"C23","type":"scitt","ukprn":10055116,"isAccreditedProvider":false,"address":{"addressLine1":"Carmel College","addressLine2":"The Headlands","town":"Darlington","postcode":"DL3 8RP"},"location":{"latitude":54.5234232,"longitude":-1.5829644,"regionCode":"A"},"contact":{"website":"www.carmelteachertraining.com","email":"teachertraining@carmel.bhcet.org.uk","telephone":"01325 523474"},"canSponsorSkilledWorkerVisa":false,"canSponsorStudentVisa":false},{"id":"5675d016-bd5e-4ca1-996d-ce44743a2cd1","name":"Chepping View Primary Academy SCITT","code":"24S","type":"scitt","ukprn":10036917,"isAccreditedProvider":true,"address":{"addressLine1":"Chepping View Primary Academy SCITT","addressLine2":"Cressex Road","town":"High Wycombe","county":"Buckinghamshire","postcode":"HP12 4PR"},"location":{"latitude":51.6151568,"longitude":-0.7764997,"regionCode":"J"},"contact":{"website":"http://www.cheppingviewprimaryscitt.com","email":"hrouse@cvpa.school","telephone":"01494 535564"},"canSponsorSkilledWorkerVisa":false,"canSponsorStudentVisa":false},{"id":"851c2421-b27d-4e93-9ae1-3310d5965cd2","name":"Cheshire East SCITT","code":"25Q","type":"scitt","ukprn":10035146,"isAccreditedProvider":true,"accreditedProviderId":5680,"address":{"addressLine1":"Selkirk Drive","town":"Crewe","county":"Cheshire","postcode":"CW4 7DX"},"location":{"latitude":53.19784319999999,"longitude":-2.3684948,"regionCode":"B"},"contact":{"website":"http://www.cheshireeastscitt.org","email":"lorraine.mellish@hccs.info","telephone":"01477 410544"},"canSponsorSkilledWorkerVisa":false,"canSponsorStudentVisa":false},{"id":"1a914b73-0d00-4043-818b-2c9196360021","name":"Chiltern Training Group","code":"C59","type":"scitt","ukprn":10055370,"isAccreditedProvider":true,"accreditedProviderId":5508,"address":{"addressLine1":"Company Secretary Chiltern Learning Trust c/o Denbigh High School","addressLine2":"Alexandra Avenue","town":"Luton","county":"Bedfordshire","postcode":"LU3 1HE"},"location":{"latitude":51.8914197,"longitude":-0.4240081,"regionCode":"G"},"contact":{"website":"https://www.ctg.ac.uk","email":"recruitment@ctg.ac.uk","telephone":"01582 493 680"},"canSponsorSkilledWorkerVisa":false,"canSponsorStudentVisa":false},{"id":"778b667e-794e-4d9e-b139-e61d2bf916ab","name":"Colchester Teacher Training Consortium","code":"C76","type":"scitt","ukprn":10035498,"isAccreditedProvider":true,"accreditedProviderId":5509,"address":{"addressLine1":"Colchester Teacher Training","addressLine2":"Colchester County High School","addressLine3":"Norman Way","town":"Colchester","county":"Essex","postcode":"CO3 3US"},"location":{"latitude":51.8847675,"longitude":0.8734799999999999,"regionCode":"G"},"contact":{"website":"www.colchesterttc.org.uk"},"canSponsorSkilledWorkerVisa":false,"canSponsorStudentVisa":false},{"id":"2aab7430-0464-4473-88e6-72d9e53a9e53","name":"Compton SCITT","code":"1X7","type":"scitt","ukprn":10058414,"isAccreditedProvider":true,"accreditedProviderId":5644,"address":{"addressLine1":"The Compton School","addressLine2":"Summers Lane","addressLine3":"North Finchley","town":"London","postcode":"N12 0QG"},"location":{"latitude":51.6085417,"longitude":-0.1610723,"regionCode":"H"},"contact":{"website":"http://www.thecompton.org.uk/587/welcome-to-the-compton-scitt-partnership","email":"smerritt@thecompton.org.uk","telephone":"020 8368 1783"},"canSponsorSkilledWorkerVisa":false,"canSponsorStudentVisa":false},{"id":"44d6c3b2-fc5e-4a4f-99ef-21b1239370ed","name":"Cornwall School Centred Initial Teacher Training. (Cornwall SCITT)","code":"C79","type":"scitt","ukprn":10007063,"isAccreditedProvider":true,"accreditedProviderId":5511,"address":{"addressLine1":"Truro College","addressLine2":"College Road","town":"Truro","county":"Cornwall","postcode":"TR1 3XX"},"location":{"latitude":50.26279419999999,"longitude":-5.1007826,"regionCode":"K"},"contact":{"website":"http://www.cornwallscitt.org","email":"scitt@truro-penwith.ac.uk","telephone":"01872 305728"},"canSponsorSkilledWorkerVisa":false,"canSponsorStudentVisa":false},{"id":"f28cf816-da02-48af-8a66-4d0990313417","name":"NITE: National Institute of Teaching & Education, part of Coventry University Group","code":"C85","type":"university","ukprn":10001726,"isAccreditedProvider":true,"address":{"addressLine1":"The National Institute of Teaching and Education (NITE)","addressLine2":"Innovation Centre, Silverstone Park","town":"Towcester","county":"Northamptonshire","postcode":"NN12 8GX"},"location":{"latitude":52.0778276,"longitude":-1.0241855,"regionCode":"E"},"contact":{"website":"www.nationalteachinginstitute.org","email":"NITE@coventry.ac.uk","telephone":"02477 650645"},"canSponsorSkilledWorkerVisa":false,"canSponsorStudentVisa":false,"accreditedProviderId":1585},{"id":"c5f2390a-c8d6-47d3-87bb-c99958183c60","name":"CREC Early Years Partnership","code":"25R","type":"scitt","ukprn":10048034,"isAccreditedProvider":false,"address":{"addressLine1":"St. Thomas Children's Centre, Bell Barn Road","town":"Birmingham","county":"West Midlands","postcode":"B15 2AF"},"location":{"latitude":52.46926310000001,"longitude":-1.9061275,"regionCode":"F"},"contact":{"website":"www.earlyprimaryteachertraining.co.uk","email":"itt@crec.co.uk","telephone":"0121 464 0020"},"canSponsorSkilledWorkerVisa":false,"canSponsorStudentVisa":false},{"id":"b46c6505-3595-497c-9b34-f83390554e1d","name":"Cumbria Primary Teacher Training","code":"C97","type":"scitt","ukprn":10048041,"isAccreditedProvider":false,"address":{"addressLine1":"Islay Place","addressLine2":"Workington","town":"Workington","county":"Cumbria","postcode":"CA14 3XB"},"location":{"latitude":54.6370532,"longitude":-3.5540245,"regionCode":"B"},"contact":{"website":"http://www.ctt.ac.uk","email":"office@ctt.ac.uk","telephone":"01900 606855"},"canSponsorSkilledWorkerVisa":false,"canSponsorStudentVisa":false},{"id":"c1a33fac-d82d-41c1-8745-e852e77d91ec","name":"Devon Primary SCITT","code":"D40","type":"scitt","ukprn":10059112,"isAccreditedProvider":true,"accreditedProviderId":5513,"address":{"addressLine1":"Trinity Primary School","addressLine2":"Fish Street","town":"Exeter","county":"Devon","postcode":"EX2 7TR"},"location":{"latitude":50.6972588,"longitude":-3.4807529,"regionCode":"K"},"contact":{"website":"http://www.dpscitt.ac.uk","email":"lflounders@dpscitt.ac.uk","telephone":"01392 790 164"},"canSponsorSkilledWorkerVisa":false,"canSponsorStudentVisa":false},{"id":"9ca05fa5-0d98-42c1-9e07-a12f780eb116","name":"Doncaster ITT Partnership","code":"D51","type":"scitt","ukprn":10002008,"isAccreditedProvider":false,"address":{"addressLine1":"Doncaster Council","addressLine2":"Civic Office, Waterdale","town":"Doncaster","county":"South Yorkshire","postcode":"DN1 3BU"},"location":{"latitude":53.5195987,"longitude":-1.1316466,"regionCode":"D"},"contact":{"website":"www.doncasteritt.co.uk","email":"ittpartnership@doncaster.gov.uk","telephone":"01302 737046"},"canSponsorSkilledWorkerVisa":false,"canSponsorStudentVisa":false},{"id":"b481a195-f2bb-4de0-b647-950aea0e80ac","name":"Dove House School Academy Trust","code":"1SG","type":"scitt","ukprn":10034865,"isAccreditedProvider":true,"address":{"addressLine1":"Sutton Road","town":"Basingstoke","county":"Berkshire","postcode":"RG21 5SU"},"location":{"latitude":51.2747055,"longitude":-1.0886718,"regionCode":"J"},"contact":{"website":"www.dovehouse.hants.sch.uk","email":"admin@dovehouseacademy.com","telephone":"01256 351555"},"canSponsorSkilledWorkerVisa":false,"canSponsorStudentVisa":false},{"id":"46f36a35-735f-45e5-9c40-347edd30f8d4","name":"Durham SCITT","code":"D87","type":"scitt","ukprn":10067657,"isAccreditedProvider":true,"address":{"addressLine1":"The Work Place","addressLine2":"Heighington Lane","town":"Newton Aycliffe","county":"County Durham","postcode":"DL5 6AH"},"location":{"latitude":54.5961732,"longitude":-1.5755202,"regionCode":"A"},"contact":{"website":"www.durhamscitt.co.uk","email":"info@durhamscitt.co.uk","telephone":"01325 308918"},"canSponsorSkilledWorkerVisa":false,"canSponsorStudentVisa":false},{"id":"f9c83b67-cc55-4811-b6fe-451b3ee03947","name":"Durham University","code":"D86","type":"university","ukprn":10007143,"isAccreditedProvider":false,"address":{"addressLine1":"School of Education","addressLine2":"Leazes Road","town":"Durham","county":"County Durham","postcode":"DH1 1TA"},"location":{"latitude":54.778023,"longitude":-1.5664525,"regionCode":"A"},"contact":{"website":"https://www.durham.ac.uk/departments/academic/education/teacher-training/","email":"raa.enquiries@durham.ac.uk","telephone":"0191 334 1000"},"canSponsorSkilledWorkerVisa":false,"canSponsorStudentVisa":true},{"id":"3de0178f-de25-492c-b114-7eb826874a36","name":"e-Qualitas","code":"E69","type":"scitt","ukprn":10046623,"isAccreditedProvider":true,"accreditedProviderId":5585,"address":{"addressLine1":"Hend House","addressLine2":"4th Floor, 233 Shaftesbury Ave","town":"London","county":"London","postcode":"WC2H 8EE"},"location":{"latitude":51.5162491,"longitude":-0.126756,"regionCode":"H"},"contact":{"website":"https://www.e-qualitas.co.uk/","email":"initialteachertraining@e-qualitas.co.uk","telephone":"0208 051 8774"},"canSponsorSkilledWorkerVisa":false,"canSponsorStudentVisa":false},{"id":"1161344e-1834-4667-8bb3-c8646a03101f","name":"East Midlands Teacher Training Partnership","code":"E31","type":"scitt","ukprn":10055367,"isAccreditedProvider":true,"accreditedProviderId":5614,"address":{"addressLine1":"The West Bridgford School","addressLine2":"Loughborough Road","town":"Nottingham","county":"Nottingham","postcode":"NG2 7FA"},"location":{"latitude":52.9178513,"longitude":-1.1369172,"regionCode":"E"},"contact":{"website":"http://emttp.ac.uk","email":"emttp@emet.uk.com","telephone":"0115 6718411"},"canSponsorSkilledWorkerVisa":false,"canSponsorStudentVisa":false},{"id":"b8299fef-ff19-4b83-b82f-1456a351df44","name":"East of England Teacher Training","code":"2B6","type":"scitt","ukprn":10052840,"isAccreditedProvider":false,"address":{"addressLine1":"East of England Teacher Training C/O Hartsholme Academy","addressLine2":"Carrington Drive","town":"Lincoln","county":"Lincolnshire","postcode":"LN6 0DE"},"location":{"latitude":53.2126773,"longitude":-0.5804669,"regionCode":"D"},"contact":{"website":"www.eoettc.com","email":"enquiries@eoettc.com","telephone":"07379 404767"},"canSponsorSkilledWorkerVisa":false,"canSponsorStudentVisa":false},{"id":"34e4dc64-070e-4687-a3c3-6ed8f9d0c5ec","name":"EAST SCITT","code":"3C6","type":"scitt","ukprn":10058884,"isAccreditedProvider":true,"accreditedProviderId":5720,"address":{"addressLine1":"EAST SCITT","addressLine2":"C/O Kesgrave High School","addressLine3":"Main Road, Kesgrave","town":"Ipswich","county":"Suffolk","postcode":"IP5 2PB"},"location":{"latitude":52.0670297,"longitude":1.2446121,"regionCode":"G"},"contact":{"website":"https://www.eastscitt.co.uk/","email":"kimrogers@eastscitt.co.uk","telephone":"01473 624855 ext 1254"},"canSponsorSkilledWorkerVisa":false,"canSponsorStudentVisa":false},{"id":"55ba7efd-af23-4731-a47b-5984ebf5eef2","name":"Edge Hill University","code":"E42","type":"university","urn":133828,"ukprn":10007823,"isAccreditedProvider":true,"accreditedProviderId":1510,"address":{"addressLine1":"Edge Hill University","addressLine2":"St Helens Road","town":"Ormskirk","county":"Lancashire","postcode":"L39 4QP"},"location":{"latitude":53.55960839999999,"longitude":-2.8738361,"regionCode":"B"},"contact":{"website":"https://www.edgehill.ac.uk/subject/postgraduate/education-and-teaching/","email":"study@edgehill.ac.uk","telephone":"01695 657000"},"canSponsorSkilledWorkerVisa":false,"canSponsorStudentVisa":true},{"id":"598e773a-2e4a-49dd-a4a0-190c3dc34b75","name":"Educate Group Initial Teacher Training","code":"E65","type":"scitt","ukprn":10035411,"isAccreditedProvider":true,"accreditedProviderId":5587,"address":{"addressLine1":"1st Floor, Aldford House","addressLine2":"Bell Meadow Business Park, Park Lane","town":"Chester","county":"Cheshire","postcode":"CH4 9EP"},"location":{"latitude":53.1365743,"longitude":-2.9211012,"regionCode":"B"},"contact":{"website":"https://educate-group.co.uk/itt/","email":"itt@educate-group.co.uk","telephone":"01978 281881"},"canSponsorSkilledWorkerVisa":false,"canSponsorStudentVisa":false},{"id":"b3548e30-3fce-47b7-b811-6d6394b42b04","name":"Embrace SCITT","code":"405","type":"scitt","ukprn":10062373,"isAccreditedProvider":true,"accreditedProviderId":5731,"address":{"addressLine1":"C/o Sea View Trust & Tor View School","addressLine2":"Clod Lane","town":"Rossendale","county":"Lancashire","postcode":"BB4 6LR"},"location":{"latitude":53.69103339999999,"longitude":-2.3123988,"regionCode":"B"},"contact":{"website":"https://www.embracetsh.co.uk","email":"educationalexcellence@theviewtrust.org","telephone":"1706214640"}},{"id":"dcce6569-2a8b-4421-8ef3-ebdb7d0efeb3","name":"Endeavour Learning SCITT","code":"M70","type":"scitt","ukprn":10059445,"isAccreditedProvider":false,"address":{"addressLine1":"Tarleton Academy","addressLine2":"Hesketh Lane, Tarleton","town":"Preston","county":"Lancashire","postcode":"PR4 6AQ"},"location":{"latitude":53.6842829,"longitude":-2.8316732,"regionCode":"B"},"contact":{"website":"https://endeavourlearning.org/teacher-training","email":"scitt@endeavourlearning.org","telephone":"01772 812 644"},"canSponsorSkilledWorkerVisa":false,"canSponsorStudentVisa":false},{"id":"a76a6c84-90c9-4746-ad9d-7f45568345e5","name":"Essex and Thames SCITT","code":"T25","type":"scitt","ukprn":10034267,"isAccreditedProvider":true,"address":{"addressLine1":"Powers Hall Academy","addressLine2":"Spa Road","town":"Witham","county":"Essex","postcode":"CM8 1NA"},"location":{"latitude":51.8054009,"longitude":0.6242419,"regionCode":"G"},"contact":{"website":"https://www.etpscitt.co.uk","email":"karon@ete.org.uk","telephone":"01268 988580"},"canSponsorSkilledWorkerVisa":false,"canSponsorStudentVisa":false},{"id":"8e34bf73-f844-48fb-a03c-773cc37b1aa8","name":"Essex Primary SCITT","code":"E73","type":"scitt","ukprn":10059888,"isAccreditedProvider":false,"address":{"addressLine1":"c/o Newlands Spring Primary School","addressLine2":"Dickens Place","town":"Chelmsford","county":"Essex","postcode":"CM1 4UU"},"location":{"latitude":51.7546766,"longitude":0.4455458,"regionCode":"G"},"contact":{"website":"http://www.essexprimaryscitt.co.uk","email":"caroline@essexprimaryscitt.co.uk","telephone":"07738 885759"},"canSponsorSkilledWorkerVisa":false,"canSponsorStudentVisa":false},{"id":"982dce3c-3fca-423c-8b6e-84d27520410b","name":"Essex Teacher Training","code":"E75","type":"scitt","ukprn":10002327,"isAccreditedProvider":true,"address":{"addressLine1":"ACL Harlow","addressLine2":"Partridge Road","town":"Harlow","county":"Essex","postcode":"CM18 6TE"},"location":{"latitude":51.75699340000001,"longitude":0.0977845,"regionCode":"G"},"contact":{"website":"https://essexteachertraining.co.uk/","email":"info@essexteachertraining.co.uk","telephone":"03330139982"},"canSponsorSkilledWorkerVisa":false,"canSponsorStudentVisa":false},{"id":"b73573ad-d8e2-4cd6-95ae-20d009775982","name":"Exceed SCITT","code":"2EY","type":"scitt","ukprn":10064216,"isAccreditedProvider":true,"accreditedProviderId":5714,"address":{"addressLine1":"Exceed SCITT","addressLine2":"Holybrook Primary School","town":"Bradford","county":"Bradford","postcode":"BD10 0EF"},"location":{"latitude":53.8249495,"longitude":-1.7135266,"regionCode":"D"},"contact":{"website":"http://www.exceedscitt.co.uk","email":"exceed.scitt@exceedacademiestrust.co.uk","telephone":"01274 611327"},"canSponsorSkilledWorkerVisa":false,"canSponsorStudentVisa":false},{"id":"edc24430-00dc-4924-8fda-25fecc7e263a","name":"Exchange Teacher Training","code":"1DU","type":"scitt","urn":136343,"ukprn":10055739,"isAccreditedProvider":true,"accreditedProviderId":5724,"address":{"addressLine1":"Education House","addressLine2":"Spawd Bone Lane","town":"Knottingley","county":"West Yorkshire","postcode":"WF11 0EP"},"location":{"latitude":53.7055235,"longitude":-1.2424867,"regionCode":"D"},"contact":{"website":"https://www.deltatrust.org.uk/train-to-teach/","email":"schooldirect@deltatrust.org.uk","telephone":"0345 196 0033"},"canSponsorSkilledWorkerVisa":false,"canSponsorStudentVisa":false},{"id":"2ba9c2d3-ffff-4b6b-8ede-bf39355037dc","name":"Exeter College","code":"404","type":"university","ukprn":10002370,"isAccreditedProvider":true,"address":{"town":"Exeter"},"location":{"regionCode":"K"},"contact":{"email":"janemay@exe-coll.ac.uk","telephone":"01392400944"},"canSponsorSkilledWorkerVisa":false,"canSponsorStudentVisa":false},{"id":"ade44ac5-ab15-4335-96b7-51861f351886","name":"Fareham and Gosport Primary SCITT","code":"25M","type":"scitt","ukprn":10048033,"isAccreditedProvider":true,"accreditedProviderId":5681,"address":{"addressLine1":"Fareham and Gosport Primary SCITT","addressLine2":"Harrison Primary School","town":"Fareham","county":"Fareham","postcode":"PO16 7EQ"},"location":{"latitude":50.8566412,"longitude":-1.180893,"regionCode":"J"},"contact":{"website":"http://www.farehamandgosportprimaryscitt.co.uk","email":"farehamandgosportprimaryscitt@harrison.hants.sch.uk","telephone":"01329 239584"},"canSponsorSkilledWorkerVisa":false,"canSponsorStudentVisa":false},{"id":"b077b725-07c3-4a80-a3c9-ee2611644e55","name":"Forest Independent Primary Collegiate SCITT","code":"F82","type":"scitt","ukprn":10046090,"isAccreditedProvider":false,"address":{"addressLine1":"Latton Green Primary Academy Site","addressLine2":"Riddings Lane","town":"Harlow","county":"Essex","postcode":"CM18 7HT"},"location":{"latitude":51.7477755,"longitude":0.1133801,"regionCode":"G"},"contact":{"website":"www.fipc.ac.uk","email":"office@fipc.ac.uk","telephone":"01279 421333"},"canSponsorSkilledWorkerVisa":false,"canSponsorStudentVisa":false},{"id":"20a27229-5a60-4015-b64b-3b2e5ed04b44","name":"Future Teacher Training","code":"P58","type":"scitt","ukprn":10043978,"isAccreditedProvider":true,"accreditedProviderId":5633,"address":{"addressLine1":"Pimlico Academy","addressLine2":"Lupus Street","town":"London","postcode":"SW1V 3AT"},"location":{"latitude":51.4880181,"longitude":-0.1379697,"regionCode":"H"},"contact":{"website":"https://www.futureteachertraining.org/","email":"enquiries@scitt.futureacademies.org","telephone":"02078280881"},"canSponsorSkilledWorkerVisa":false,"canSponsorStudentVisa":false},{"id":"37c5c56d-f673-427e-8c6a-cf7e5b413ea8","name":"Fylde Coast SCITT","code":"252","type":"scitt","ukprn":10046861,"isAccreditedProvider":false,"address":{"addressLine1":"Fylde Coast SCITT","addressLine2":"Blackpool Sixth Form College","town":"Blackpool","county":"Blackpool","postcode":"FY3 7LR"},"location":{"latitude":53.8371513,"longitude":-3.0155238,"regionCode":"B"},"contact":{"website":"http://www.fyldecoastscitt.co.uk","email":"aly.spencer@blackpoolsixth.ac.uk","telephone":"01253 209199"},"canSponsorSkilledWorkerVisa":false,"canSponsorStudentVisa":false},{"id":"75616e3c-5e5a-4e7d-9cc5-2842b0c25b64","name":"Gateshead Primary SCITT","code":"G10","type":"scitt","ukprn":10046101,"isAccreditedProvider":false,"address":{"addressLine1":"Lobley Hill Primary School","addressLine2":"Rothbury Gardens","town":"Gateshead","county":"Tyne & Wear","postcode":"NE11 0AT"},"location":{"latitude":54.938269,"longitude":-1.6377786,"regionCode":"A"},"contact":{"website":"www.gatesheadscitt.org.uk","email":"info@gatesheadscitt.org.uk","telephone":"0191 433 4081"},"canSponsorSkilledWorkerVisa":false,"canSponsorStudentVisa":false},{"id":"121d1808-e1c9-443a-acc9-89c317315542","name":"George Abbot SCITT","code":"G12","type":"scitt","ukprn":10055368,"isAccreditedProvider":false,"address":{"addressLine1":"George Abbot School","addressLine2":"Woodruff Avenue","town":"Guildford","county":"Surrey","postcode":"GU1 1XX"},"location":{"latitude":51.2538531,"longitude":-0.547906,"regionCode":"J"},"contact":{"website":"www.georgeabbottraining.co.uk","email":"gnewman@georgeabbot.surrey.sch.uk","telephone":"01483 888048"},"canSponsorSkilledWorkerVisa":false,"canSponsorStudentVisa":false},{"id":"b0e70daf-d8c9-4d33-9ac0-9681e3fca894","name":"George Spencer Academy SCITT","code":"1HR","type":"scitt","ukprn":10052834,"isAccreditedProvider":true,"address":{"addressLine1":"George Spencer Academy","addressLine2":"Arthur Mee Road","town":"Nottingham","county":"Nottingham","postcode":"NG9 7EW"},"location":{"latitude":52.9208308,"longitude":-1.268876,"regionCode":"E"},"contact":{"website":"http://georgespencerscitt.co.uk/","email":"SCITT@george-spencer.notts.sch.uk","telephone":"01159170100"},"canSponsorSkilledWorkerVisa":false,"canSponsorStudentVisa":false},{"id":"08f77ad5-79e4-472d-9d37-e8bb74344df1","name":"GLF Schools' Teacher Training","code":"2B4","type":"scitt","ukprn":10053217,"isAccreditedProvider":false,"address":{"addressLine1":"c/o Rosebery School","addressLine2":"White Horse Drive","town":"Epsom","county":"Surrey","postcode":"KT18 7NQ"},"location":{"latitude":51.3279519,"longitude":-0.277905,"regionCode":"J"},"contact":{"website":"https://www.glfscitt.org/","email":"info@glftt.org","telephone":"020 3519 6454"},"canSponsorSkilledWorkerVisa":false,"canSponsorStudentVisa":false},{"id":"90806db3-e8b9-41c0-868f-8347b6de22d2","name":"Gloucestershire Initial Teacher Education Partnership (GITEP)","code":"G48","type":"scitt","ukprn":10034789,"isAccreditedProvider":true,"accreditedProviderId":5518,"address":{"addressLine1":"Unit 23, The Steadings Business Centre","addressLine2":"Maisemore","town":"Gloucester","county":"Gloucestershire","postcode":"GL2 8EY"},"location":{"latitude":51.8930697,"longitude":-2.2713438,"regionCode":"K"},"contact":{"website":"www.gitep.org.uk","email":"admin@gitep.org.uk","telephone":"01242 505945"},"canSponsorSkilledWorkerVisa":false,"canSponsorStudentVisa":false},{"id":"204aa783-ac27-427e-9606-46a52a2ed188","name":"Goldsmiths, University of London","code":"G56","type":"university","ukprn":10002718,"isAccreditedProvider":true,"accreditedProviderId":1511,"address":{"addressLine1":"New Cross","addressLine3":"Lewisham","town":"London","postcode":"SE14 6NW"},"location":{"latitude":51.4741436,"longitude":-0.0354011,"regionCode":"H"},"contact":{"website":"https://www.gold.ac.uk/pgce/","email":"course-info@gold.ac.uk","telephone":"020 7078 5300"},"canSponsorSkilledWorkerVisa":true,"canSponsorStudentVisa":true},{"id":"8477a921-5469-4428-810e-ed7ad9609975","name":"GORSE SCITT (Leeds, Bradford, Hull and East Yorkshire)","code":"1N1","type":"scitt","ukprn":10055363,"isAccreditedProvider":true,"accreditedProviderId":5658,"address":{"addressLine1":"c/o The Bruntcliffe Academy","addressLine2":"Bruntcliffe Lane","town":"Leeds","county":"Yorkshire","postcode":"LS27 0LZ"},"location":{"latitude":53.7455869,"longitude":-1.6202075,"regionCode":"D"},"contact":{"website":"http://www.gorsescitt.org.uk","email":"info@gorsescitt.org.uk","telephone":"0113 4871777"},"canSponsorSkilledWorkerVisa":false,"canSponsorStudentVisa":false},{"id":"bccdcfb8-2d37-41d5-8c49-a22a4985c70b","name":"Hamwic SCITT","code":"26U","type":"scitt","ukprn":10049721,"isAccreditedProvider":false,"address":{"addressLine1":"Weston Park Primary School","town":"Southampton","county":"Hampshire","postcode":"SO19 9HX"},"location":{"latitude":50.8926046,"longitude":-1.3563835,"regionCode":"J"},"contact":{"website":"www.hamwicscitt.org","email":"info@hamwicscitt.org","telephone":"02380 786833"},"canSponsorSkilledWorkerVisa":false,"canSponsorStudentVisa":false},{"id":"d5a7e2f6-1555-4d3b-b79e-0b5e6c64e090","name":"Harris ITE","code":"1WU","type":"scitt","ukprn":10055126,"isAccreditedProvider":true,"address":{"addressLine1":"Harris Initial Teacher Education","addressLine2":"55 Southwark Park Road","town":"London","postcode":"SE16 3TZ"},"location":{"latitude":51.4932583,"longitude":-0.0709254,"regionCode":"H"},"contact":{"website":"http://www.harristeachingschool.com"},"canSponsorSkilledWorkerVisa":false,"canSponsorStudentVisa":false},{"id":"ecd3772b-37cf-4a28-80d5-69227641c1e5","name":"Haybridge Alliance SCITT","code":"2B3","type":"scitt","ukprn":10034167,"isAccreditedProvider":true,"accreditedProviderId":5701,"address":{"addressLine1":"Haybridge Alliance SCITT","addressLine2":"Brake Lane","town":"Stourbridge","postcode":"DY8 2XS"},"location":{"latitude":52.4241026,"longitude":-2.149334,"regionCode":"F"},"contact":{"website":"http://www.teachwithhaybridge.co.uk","email":"abarker@haybridge.worcs.sch.uk","telephone":"01562 881110"},"canSponsorSkilledWorkerVisa":false,"canSponsorStudentVisa":false},{"id":"0c2676a9-5429-41f1-bfa7-b7debfc85023","name":"Henry Maynard Training E17","code":"2AW","type":"scitt","ukprn":10053211,"isAccreditedProvider":false,"address":{"addressLine1":"Henry Maynard Primary Sch","addressLine2":"Maynard Road","addressLine3":"Walthamstow","town":"London","postcode":"E17 9JE"},"location":{"latitude":51.58148600000001,"longitude":-0.0064681,"regionCode":"H"},"contact":{"website":"http://www.henrymaynardprimary.co.uk/topic/training","email":"training@henrymaynard.waltham.sch.uk","telephone":"020 8520 3042"},"canSponsorSkilledWorkerVisa":false,"canSponsorStudentVisa":false},{"id":"eef1ac9f-28c5-472a-8430-9753344ca8b5","name":"High Force Education (SCITT)","code":"H38","type":"scitt","ukprn":10046049,"isAccreditedProvider":false,"address":{"addressLine1":"Green Lane CE Primary School","addressLine2":"Green Lane","town":"Barnard","county":"County Durham","postcode":"DL12 8LG"},"location":{"latitude":54.5459993,"longitude":-1.9092276,"regionCode":"A"},"contact":{"website":"http://www.highforceeducation.co.uk","email":"info@highforceeducation.co.uk","telephone":"01833 630487"},"canSponsorSkilledWorkerVisa":false,"canSponsorStudentVisa":false},{"id":"9b94cfd3-6768-4297-8b9d-f92b733ee989","name":"Hillingdon SCITT","code":"2B5","type":"scitt","ukprn":10059208,"isAccreditedProvider":false,"address":{"addressLine1":"c/o Bishop Ramsey CE School","addressLine2":"Hume Way","town":"Ruislip","county":"Middlesex","postcode":"HA4 8EE"},"location":{"latitude":51.5790941,"longitude":-0.4085827,"regionCode":"H"},"contact":{"website":"https://hillingdonteachingschoolalliance.org/Welcome-to-Hillingdon-SCITT/","email":"hillingdonscitt@bishopramseyschool.org","telephone":"01895671062"},"canSponsorSkilledWorkerVisa":false,"canSponsorStudentVisa":false},{"id":"927a4e7f-395e-4829-93bd-cdc83e75cc57","name":"Huddersfield Horizon SCITT","code":"2EX","type":"scitt","ukprn":10058690,"isAccreditedProvider":true,"accreditedProviderId":5713,"address":{"addressLine1":"South Pennine Academies' Business and Training Centre","addressLine2":"The Gateway","town":"Holmfirth","county":"West Yorkshire","postcode":"HD9 5NX"},"location":{"latitude":53.5930277,"longitude":-1.8514481,"regionCode":"D"},"contact":{"website":"https://huddersfieldhorizon.com","email":"emilybeach@huddersfieldhorizon.com","telephone":"07590881459"},"canSponsorSkilledWorkerVisa":false,"canSponsorStudentVisa":false},{"id":"236c7c5d-87cd-408b-af25-90d101035426","name":"Hull SCITT","code":"25O","type":"scitt","ukprn":10055359,"isAccreditedProvider":false,"address":{"addressLine1":"Hull SCITT","addressLine2":"Dorchester Primary School","addressLine3":"Dorchester Road","town":"Hull","postcode":"HU7 6AH"},"location":{"latitude":53.7802739,"longitude":-0.3177445,"regionCode":"D"},"contact":{"website":"http://www.hullscitt.com","email":"training@hullscitt.com","telephone":"01482 308650"},"canSponsorSkilledWorkerVisa":false,"canSponsorStudentVisa":false},{"id":"3735a31e-512f-499d-8572-83ca5fa69000","name":"i2i Teaching Partnership","code":"24X","type":"scitt","ukprn":10058582,"isAccreditedProvider":true,"accreditedProviderId":5657,"address":{"addressLine1":"Weydon School","addressLine2":"Weydon Lane","town":"Farnham","county":"Surrey","postcode":"GU9 8UG"},"location":{"latitude":51.20202870000001,"longitude":-0.8161309999999999,"regionCode":"J"},"contact":{"website":"http://www.i2ipartnership.co.uk","email":"ktaylor@i2ipartnership.co.uk","telephone":"01252 900550"},"canSponsorSkilledWorkerVisa":false,"canSponsorStudentVisa":false},{"id":"81afe0e5-14fa-4cd2-a8e4-7f6a32cca4e6","name":"Inspiring Future Teachers","code":"3Y3","type":"scitt","ukprn":10058640,"isAccreditedProvider":true,"accreditedProviderId":5738,"address":{"addressLine1":"c/o HISP Multi Academy Trust","addressLine2":"Winchester Road","town":"Eastleigh","county":"Hampshire","postcode":"SO53 2DW"},"location":{"latitude":50.994507,"longitude":-1.3629694,"regionCode":"J"},"contact":{"website":"https://www.inspiringfutureteachers.org/","email":"info@inspiringft.org","telephone":"02380246588"}},{"id":"3d834bd6-f9df-49e7-ab1b-1bd70e1fb8d9","name":"Inspiring Leaders Primary (Leicester and Rutland)","code":"1BJ","type":"scitt","ukprn":10055365,"isAccreditedProvider":true,"address":{"addressLine1":"Discovery Schools NSPCC Training Centre","addressLine2":"NSPCC National Training Centre","town":"Leicester","county":"Leicestershire","postcode":"LE4 1EZ"},"location":{"latitude":52.6671607,"longitude":-1.1641923,"regionCode":"E"},"contact":{"website":"http://www.inspiringleadersscitt.com","email":"psutton@iltt.org.uk","telephone":"01163184066"},"canSponsorSkilledWorkerVisa":false,"canSponsorStudentVisa":false},{"id":"e96e20b6-e409-4923-8162-a4bb60f81ad2","name":"Inspiring Leaders Primary (Nottinghamshire)","code":"24H","type":"scitt","ukprn":10088528,"isAccreditedProvider":true,"address":{"addressLine1":"Inspiring Leaders Teacher Training","addressLine2":"2a Vickery Way,","town":"Nottingham","county":"Nottingham","postcode":"NG9 6RY"},"location":{"latitude":52.9080087,"longitude":-1.2467881,"regionCode":"E"},"contact":{"website":"http://inspiringleadersscitt.com/","email":"abarton@flyinghightrust.co.uk","telephone":"01159891915"},"canSponsorSkilledWorkerVisa":false,"canSponsorStudentVisa":false},{"id":"fba31b60-8770-4dcc-a92c-2edf9a90954a","name":"Inspiring Leaders Secondary (Nottingham, Derbyshire and Leicester)","code":"2A5","type":"scitt","ukprn":10055365,"isAccreditedProvider":true,"accreditedProviderId":5642,"address":{"addressLine1":"The Redhill Academy","addressLine2":"Arnold","town":"Nottingham","county":"Nottinghamshire","postcode":"NG5 8GX"},"location":{"latitude":53.0099198,"longitude":-1.1304767,"regionCode":"E"},"contact":{"website":"https://www.redhillteachertraining.org.uk","email":"s.haslam@theredhillacademy.org.uk","telephone":"0115 9261481 ext 182"},"canSponsorSkilledWorkerVisa":false,"canSponsorStudentVisa":false},{"id":"06cbb4ae-5a7e-4121-8bf0-969dca116974","name":"Keele and North Staffordshire Teacher Education","code":"24J","type":"scitt","ukprn":10060817,"isAccreditedProvider":true,"accreditedProviderId":5653,"address":{"addressLine1":"KNSTE, Seabridge Primary School","addressLine2":"Roe Lane","town":"Newcastle","county":"Staffordshire","postcode":"ST5 3PJ"},"location":{"latitude":52.99215,"longitude":-2.2363702,"regionCode":"F"},"contact":{"website":"http://knste-shaw.org.uk","email":"enquiries@knste-shaw.org.uk","telephone":"01782 432537"},"canSponsorSkilledWorkerVisa":false,"canSponsorStudentVisa":false},{"id":"313b7f77-470a-45ac-9b0d-0f6dfe18ef89","name":"Keele University","code":"K12","type":"university","isAccreditedProvider":false,"address":{"addressLine1":"Teacher Education Office","addressLine2":"Chancellor's Building","town":"Newcastle","county":"Staffordshire","postcode":"ST5 5BG"},"location":{"latitude":53.0032617,"longitude":-2.2735806,"regionCode":"F"},"contact":{"website":"www.keele.ac.uk"}},{"id":"6f803537-3256-467e-b153-41370a12521a","name":"Kent and Medway Training","code":"K30","type":"scitt","ukprn":10052832,"isAccreditedProvider":true,"address":{"addressLine1":"Leigh Academies Trust - Strood Academy","addressLine2":"Carnation Road","town":"Rochester","county":"Kent","postcode":"ME2 2SX"},"location":{"latitude":51.3980148,"longitude":0.4661507,"regionCode":"J"},"contact":{"website":"http://www.kmtraining.org.uk","email":"sefika.sakalli@kmtraining.org.uk","telephone":"07729608106"},"canSponsorSkilledWorkerVisa":false,"canSponsorStudentVisa":false},{"id":"56624987-d587-43a1-8750-55af7ba60593","name":"King Edward's Consortium","code":"K50","type":"scitt","ukprn":10065300,"isAccreditedProvider":true,"accreditedProviderId":5591,"address":{"addressLine1":"KEVI Camp Hill Girls' School","addressLine2":"Vicarage Road","town":"Birmingham","county":"Birmingham","postcode":"B14 7QJ"},"location":{"latitude":52.4310884,"longitude":-1.9022814,"regionCode":"F"},"contact":{"website":"http://www.teachkec.org.uk","email":"ruth.penn@teachkec.org.uk","telephone":"0121 441 6680"},"canSponsorSkilledWorkerVisa":false,"canSponsorStudentVisa":false},{"id":"d36cab94-e8d9-4a54-aeee-afa20d324f12","name":"King's College London (University of London)","code":"K60","type":"university","ukprn":10003645,"isAccreditedProvider":true,"accreditedProviderId":1515,"address":{"addressLine1":"Admissions and Registry Services","addressLine2":"Bush House â€“ North West Wing","addressLine3":"30 Aldwych","town":"London","postcode":"WC2B 4BG"},"location":{"latitude":51.5125782,"longitude":-0.1170922,"regionCode":"H"},"contact":{"website":"http://www.kcl.ac.uk","email":"service-response@kcl.ac.uk","telephone":"020 7848 7000"},"canSponsorSkilledWorkerVisa":false,"canSponsorStudentVisa":true},{"id":"5aedcc15-6755-4454-9d80-a7eb190dbcc3","name":"Kingsbridge EIP SCITT","code":"1S2","type":"scitt","ukprn":10054033,"isAccreditedProvider":true,"accreditedProviderId":5616,"address":{"addressLine1":"Kingsbridge Teacher Training Center","addressLine2":"c/o Platt Bridge Community School,","town":"Wigan","county":"Wigan","postcode":"WN2 5NG"},"location":{"latitude":53.5222794,"longitude":-2.5959251,"regionCode":"B"},"contact":{"website":"http://www.kingsbridgeteachertraining.co.uk/","email":"kingsbridge@cfat.org.uk","telephone":"01942487999"},"canSponsorSkilledWorkerVisa":false,"canSponsorStudentVisa":false},{"id":"18c7641f-dd01-436d-99af-6609eeece9d0","name":"Kingston University","code":"K84","type":"university","ukprn":10003678,"isAccreditedProvider":true,"accreditedProviderId":1516,"address":{"addressLine1":"Kingston Hill Campus","addressLine2":"Kingston Hill","town":"Kingston upon Thames","county":"London","postcode":"KT2 7LB"},"location":{"latitude":51.4290119,"longitude":-0.265218,"regionCode":"H"},"contact":{"website":"http://www.kingston.ac.uk","email":"education@kingston.ac.uk","telephone":"020 33089932"},"canSponsorSkilledWorkerVisa":false,"canSponsorStudentVisa":true},{"id":"b703f2a3-7e87-43c7-9640-26b310c8f009","name":"Kirklees and Calderdale SCITT","code":"1WK","type":"scitt","ukprn":10003692,"isAccreditedProvider":false,"address":{"addressLine1":"Leeds Old Road","town":"Heckmondwike","county":"West Yorkshire","postcode":"WF16 9BB"},"location":{"latitude":53.7206974,"longitude":-1.6681819,"regionCode":"D"},"contact":{"website":"http://www.kcscitt.com","email":"cathyz.scott@kirklees.gov.uk","telephone":"01484 221177"},"canSponsorSkilledWorkerVisa":false,"canSponsorStudentVisa":false},{"id":"3abbbfb8-aa7e-48fe-a467-2536d142687e","name":"Lampton LWA SCITT","code":"2AY","type":"scitt","ukprn":10031352,"isAccreditedProvider":false,"address":{"addressLine1":"Lampton LWA SCITT","addressLine2":"Lampton School","addressLine3":"Lampton Avenue","town":"Hounslow","postcode":"TW3 4EP"},"location":{"latitude":51.4772113,"longitude":-0.3679366,"regionCode":"H"},"contact":{"website":"https://www.lwascitt.org.uk","email":"nassi@lampton.org.uk","telephone":"020 8538 4790"},"canSponsorSkilledWorkerVisa":false,"canSponsorStudentVisa":false},{"id":"f8a7e6f3-08c4-40d0-b8c8-da2503f81044","name":"Leeds Beckett University","code":"L27","type":"university","ukprn":10003861,"isAccreditedProvider":true,"accreditedProviderId":1517,"address":{"addressLine1":"Admissions","addressLine2":"Bronte Hall","addressLine3":"Headingley Campus","town":"Leeds","postcode":"LS6 3QW"},"location":{"latitude":53.8257999,"longitude":-1.5912714,"regionCode":"D"},"contact":{"website":"http://www.leedsbeckett.ac.uk","email":"Admissionsenquiries@leedsbeckett.ac.uk","telephone":"0113 812 3113"},"canSponsorSkilledWorkerVisa":false,"canSponsorStudentVisa":true},{"id":"c3038716-0187-411a-ad4b-f88066bc7d09","name":"Leeds SCITT","code":"L26","type":"scitt","ukprn":10003863,"isAccreditedProvider":false,"accreditedProviderId":1532,"address":{"addressLine1":"Brownberrie Lane","addressLine2":"Horsforth","town":"Leeds","county":"West Yorkshire","postcode":"LS18 5HD"},"location":{"latitude":53.8487802,"longitude":-1.6473495,"regionCode":"D"},"contact":{"website":"http://www.leedsscitt.org.uk","email":"admissions@leedstrinity.ac.uk","telephone":"0113 283 7268"},"canSponsorSkilledWorkerVisa":false,"canSponsorStudentVisa":true},{"id":"0dcaf4b8-b01f-442e-98e5-fa59d7db1024","name":"Leeds Trinity University","code":"L24","type":"university","urn":133838,"ukprn":10003863,"isAccreditedProvider":true,"accreditedProviderId":1532,"address":{"addressLine1":"Leeds Trinity University","addressLine2":"Brownberrie Lane","addressLine3":"Horsforth","town":"Leeds","postcode":"LS18 5HD"},"location":{"latitude":53.8487802,"longitude":-1.6473495,"regionCode":"D"},"contact":{"website":"https://www.leedstrinity.ac.uk","email":"admissions@leedstrinity.ac.uk","telephone":"0113 283 7123"},"canSponsorSkilledWorkerVisa":false,"canSponsorStudentVisa":true},{"id":"5e4c765a-f1f9-403a-ba03-5da030110085","name":"Leicester & Leicestershire SCITT","code":"L35","type":"scitt","ukprn":10046132,"isAccreditedProvider":false,"address":{"addressLine1":"Dovelands Primary School","addressLine2":"Hinckley Road","town":"Leicester","county":"Leicestershire","postcode":"LE3 0TJ"},"location":{"latitude":52.6329134,"longitude":-1.1635446,"regionCode":"E"},"contact":{"website":"http://www.leics-scitt.co.uk","email":"admin@leics-scitt.co.uk","telephone":"0116 254 3187"},"canSponsorSkilledWorkerVisa":false,"canSponsorStudentVisa":false},{"id":"7ef2ab72-83df-4273-b566-3b870e385067","name":"Leicestershire and Rutland Initial Teacher Training","code":"5L3","type":"scitt","ukprn":10024318,"isAccreditedProvider":true,"location":{"regionCode":"E"},"contact":{"website":"www.lrtshub.org.uk","email":"contact@lrtshub.org.uk","telephone":"01163033744"},"canSponsorSkilledWorkerVisa":false,"canSponsorStudentVisa":false},{"id":"ffa9b873-d059-415e-9fcc-c19c84f4f2ab","name":"Leicestershire Secondary SCITT","code":"L33","type":"scitt","ukprn":10055113,"isAccreditedProvider":true,"accreditedProviderId":5584,"address":{"addressLine1":"Rushey Mead Teaching School","addressLine2":"Melton Road","town":"Leicester","county":"Leicestershire","postcode":"LE4 7AN"},"location":{"latitude":52.6586148,"longitude":-1.1151377,"regionCode":"E"},"contact":{"website":"https://www.leicestershiresecondaryscitt.org","email":"AdminSCITT@rushey-tmet.uk","telephone":"0116 268 9734"},"canSponsorSkilledWorkerVisa":true,"canSponsorStudentVisa":false},{"id":"1f382395-bb47-49c1-bced-0435fd4de886","name":"Lincolnshire SCITT","code":"25G","type":"scitt","ukprn":10058228,"isAccreditedProvider":true,"accreditedProviderId":5676,"address":{"addressLine1":"The Keyworth Centre c/o The Priory City of Lincoln Academy","addressLine2":"Skellingthorpe Road","town":"Lincoln","county":"Lincolnshire","postcode":"LN6 0EP"},"location":{"latitude":53.2128774,"longitude":-0.5738861,"regionCode":"D"},"contact":{"website":"https://www.lincolnshirescitt.co.uk","email":"SCITTEnquiries@prioryacademies.co.uk","telephone":"01522 889297"},"canSponsorSkilledWorkerVisa":false,"canSponsorStudentVisa":false},{"id":"aee5e1d1-a52f-4e1a-ba2b-284d25d2dcaf","name":"Liverpool Hope University","code":"L46","type":"university","urn":133826,"ukprn":10003956,"isAccreditedProvider":true,"accreditedProviderId":1518,"address":{"addressLine1":"Student Enrolment","addressLine2":"Hope Park","town":"Liverpool","county":"Merseyside","postcode":"L16 9JD"},"location":{"latitude":53.39151099999999,"longitude":-2.8919066,"regionCode":"B"},"contact":{"website":"http://www.hope.ac.uk","email":"enquiry@hope.ac.uk","telephone":"0151 291 3111"},"canSponsorSkilledWorkerVisa":false,"canSponsorStudentVisa":true},{"id":"10369c17-78cd-4e4a-8be6-f0e7c9cdaf4e","name":"Liverpool John Moores University","code":"L51","type":"university","ukprn":10003957,"isAccreditedProvider":true,"address":{"addressLine1":"Liverpool John Moores University","addressLine2":"Education Building, Maryland Street","town":"Liverpool","county":"Merseyside","postcode":"L1 9DE"},"location":{"latitude":53.4023084,"longitude":-2.9711586,"regionCode":"B"},"contact":{"website":"https://www.ljmu.ac.uk/about-us/faculties/faculty-of-arts-professional-and-social-studies/school-of-education/courses/teacher-training","email":"education@ljmu.ac.uk","telephone":"0151 231 3000"},"canSponsorSkilledWorkerVisa":false,"canSponsorStudentVisa":true},{"id":"3c191be6-69c4-4130-a851-ac51eb7259bb","name":"London District East SCITT","code":"24M","type":"scitt","urn":140998,"ukprn":10064183,"isAccreditedProvider":true,"address":{"addressLine1":"Tollgate Primary School","addressLine2":"Barclay Road","town":"London","county":"Newham","postcode":"E13 8SA"},"location":{"latitude":51.519728,"longitude":0.0336732,"regionCode":"H"},"contact":{"website":"http://www.londondistricteast.org/","email":"scitt@londondistricteast.org","telephone":"02074761848"},"canSponsorSkilledWorkerVisa":false,"canSponsorStudentVisa":false},{"id":"74e23007-bd61-40f2-9aee-70f9796e3553","name":"London East Teacher Training Alliance","code":"133","type":"scitt","urn":144236,"ukprn":10064599,"isAccreditedProvider":true,"accreditedProviderId":5663,"address":{"addressLine1":"Bygrove Primary School","addressLine2":"Bygrove Street","town":"London","county":"London","postcode":"E14 6DN"},"location":{"latitude":51.5125134,"longitude":-0.0181857,"regionCode":"H"},"contact":{"website":"www.letta.org.uk","email":"train@letta.org.uk","telephone":"020 7538 4925"},"canSponsorSkilledWorkerVisa":false,"canSponsorStudentVisa":false},{"id":"ce0d235f-f8ac-43e9-9e0e-0713c136e5ae","name":"London Metropolitan University","code":"L68","type":"university","urn":133816,"ukprn":10004048,"isAccreditedProvider":true,"accreditedProviderId":1520,"address":{"addressLine1":"London Metropolitan University","addressLine2":"Admissions Office","addressLine3":"166-220 Holloway Road","town":"London","postcode":"N7 8DB"},"location":{"latitude":51.5515249,"longitude":-0.1096837,"regionCode":"H"},"contact":{"website":"https://www.londonmet.ac.uk/courses/routes-into-teaching/postgraduate/","email":"courseenquiries@londonmet.ac.uk","telephone":"020 7133 4202"},"canSponsorSkilledWorkerVisa":false,"canSponsorStudentVisa":false},{"id":"de638481-16a0-4e45-92d5-de5cc1476adb","name":"London School of Jewish Studies (LSJS)","code":"28T","type":"scitt","ukprn":10029147,"isAccreditedProvider":true,"accreditedProviderId":5501,"address":{"addressLine1":"Hillside Avenue","town":"Borehamwood","county":"Hertfordshire","postcode":"WD6 1HL"},"location":{"latitude":51.6542865,"longitude":-0.268181,"regionCode":"H"},"contact":{"website":"https://www.lsjs.ac.uk/school-direct-secondary.php","email":"pa@yavnehcollege.org","telephone":"0208 736 5580"},"canSponsorSkilledWorkerVisa":false,"canSponsorStudentVisa":false},{"id":"df1183db-ce1f-42ee-9c34-0b268ecb7d4d","name":"London South Bank University","code":"L75","type":"university","urn":133873,"ukprn":10004078,"isAccreditedProvider":false,"address":{"addressLine1":"London South Bank University","addressLine2":"103 Borough Road","addressLine3":"Southwark","town":"London","postcode":"SE1 0AA"},"location":{"latitude":51.4987076,"longitude":-0.1017724,"regionCode":"H"},"contact":{"website":"https://www.lsbu.ac.uk/study/course-finder/primary-pgce","email":"admissions@lsbu.ac.uk","telephone":"020 7815 6100"},"canSponsorSkilledWorkerVisa":false,"canSponsorStudentVisa":true},{"id":"e5ecf7af-4ca4-4718-a083-579fc9bc1566","name":"Loughborough University","code":"L79","type":"university","urn":133834,"ukprn":10004113,"isAccreditedProvider":true,"accreditedProviderId":1521,"address":{"addressLine1":"Loughborough University","town":"Loughborough","county":"Leicestershire","postcode":"LE11 3TU"},"location":{"latitude":52.76482799999999,"longitude":-1.2295195,"regionCode":"E"},"contact":{"website":"https://www.lboro.ac.uk/departments/teacher-education/","email":"pgce@mailbox.lboro.ac.uk","telephone":"01509226302"},"canSponsorSkilledWorkerVisa":false,"canSponsorStudentVisa":false},{"id":"9790e5ef-c6ea-4989-963b-a38324efe235","name":"Luminate Partnership for ITT","code":"4L6","type":"university","ukprn":10024962,"isAccreditedProvider":true,"location":{"regionCode":"Z"},"contact":{"email":"karl.sykes@ucleeds.ac.uk","telephone":"07939043791"}},{"id":"f2085ca1-8a82-43d6-8c9f-6763d656c789","name":"Manchester Nexus SCITT","code":"2EU","type":"scitt","ukprn":10058966,"isAccreditedProvider":true,"accreditedProviderId":5710,"address":{"addressLine1":"The Blue Coat School","addressLine2":"Egerton Street","town":"Oldham","postcode":"OL1 3SQ"},"location":{"latitude":53.54608,"longitude":-2.1077299,"regionCode":"B"},"contact":{"website":"http://manchesternexus.com/","email":"recruitment@manchesternexus.com","telephone":"0161 6241484"},"canSponsorSkilledWorkerVisa":false,"canSponsorStudentVisa":false},{"id":"d64c00bc-a522-4e69-ac40-e57c8058390f","name":"Mersey Boroughs ITT Partnership","code":"1X8","type":"scitt","ukprn":10045107,"isAccreditedProvider":true,"address":{"addressLine1":"c/o St Mary & St Paul's CE Primary School","addressLine2":"Bryer Road","addressLine3":"Prescot","town":"Prescot","postcode":"L35 5DN"},"location":{"latitude":53.4206149,"longitude":-2.8022307,"regionCode":"B"},"contact":{"website":"http://merseyboroughsitt.org.uk","email":"merseyboroughsitt@knowsley.gov.uk","telephone":"0151 443 2663"},"canSponsorSkilledWorkerVisa":false,"canSponsorStudentVisa":false},{"id":"dfe8bdd4-5d1b-400f-9a43-8f45fcd099d0","name":"Mid Essex Initial Teacher Training","code":"M82","type":"scitt","ukprn":10058864,"isAccreditedProvider":true,"accreditedProviderId":5524,"address":{"addressLine1":"Mid Essex ITT","addressLine2":"Notley High School & Braintree Sixth Form","town":"Braintree","county":"Essex","postcode":"CM7 1WY"},"location":{"latitude":51.86629780000001,"longitude":0.5517261999999999,"regionCode":"G"},"contact":{"website":"http://www.midessexteachertraining.com","email":"admin@midessexteachertraining.com","telephone":"01376 556 398"},"canSponsorSkilledWorkerVisa":false,"canSponsorStudentVisa":false},{"id":"f2c210ef-f886-47fb-aff9-046fadbfa436","name":"Mid Somerset Consortium for Teacher Training","code":"M84","type":"scitt","ukprn":10058347,"isAccreditedProvider":true,"address":{"addressLine1":"Crispin School","addressLine2":"Church Road","town":"Street","county":"Somerset","postcode":"BA16 0AD"},"location":{"latitude":51.1303668,"longitude":-2.7324458,"regionCode":"K"},"contact":{"website":"http://www.mscitt.org.uk","email":"office@mscitt.org.uk","telephone":"01458 449418"},"canSponsorSkilledWorkerVisa":false,"canSponsorStudentVisa":false},{"id":"3d6876bd-98b8-4191-ab49-ad004c662b73","name":"Middlesex University","code":"M80","type":"university","ukprn":10004351,"isAccreditedProvider":true,"accreditedProviderId":1571,"address":{"addressLine1":"Middlesex University","addressLine2":"The Burroughs","addressLine3":"Hendon","town":"London","postcode":"NW4 4BT"},"location":{"latitude":51.5898297,"longitude":-0.2289707,"regionCode":"H"},"contact":{"website":"http://www.mdx.ac.uk","email":"enquiries@mdx.ac.uk","telephone":"020 8411 5555"},"canSponsorSkilledWorkerVisa":true,"canSponsorStudentVisa":true},{"id":"15ca4914-3505-41a1-80ea-5a0312c8ead4","name":"NIoT: National Institute of Teaching, founded by the School-Led Development Trust","code":"2N2","type":"university","ukprn":10090839,"isAccreditedProvider":true,"location":{"regionCode":"Z"},"contact":{"email":"c.hobson@niot.org.uk","telephone":"07757142431"},"canSponsorSkilledWorkerVisa":false,"canSponsorStudentVisa":false},{"id":"19b014f2-2017-470b-a46b-c81c04c12bee","name":"NELTA","code":"251","type":"scitt","ukprn":10046736,"isAccreditedProvider":true,"address":{"addressLine1":"Beal High School Upper Site","addressLine2":"Woodford Bridge Road","town":"Ilford","postcode":"IG4 5LP"},"location":{"latitude":51.5859347,"longitude":0.0515979,"regionCode":"H"},"contact":{"website":"http://nelta.co.uk/programmes/initial-teacher-training-programme/","email":"admin@nelta.co.uk","telephone":"02085514954"},"canSponsorSkilledWorkerVisa":false,"canSponsorStudentVisa":false},{"id":"9821e980-0022-420b-86ba-a746b0a6a747","name":"New City College","code":"4N3","type":"university","ukprn":10006963,"isAccreditedProvider":true,"address":{"addressLine1":"Ardleigh Green Road","town":"Hornchurch","postcode":"RM11 2LL"},"location":{"latitude":51.5815959,"longitude":0.2212499,"regionCode":"H"},"contact":{"website":"https://www.ncclondon.ac.uk/higher-education/level-7-post-graduate-certificate-in-education-pgce-in-post-compulsory-education-and-training","email":"customerservices.hfe@ncclondon.ac.uk","telephone":"03301359000"},"canSponsorSkilledWorkerVisa":false,"canSponsorStudentVisa":false},{"id":"50c6caa0-5037-4a35-927b-40664c7548de","name":"Newman University","code":"N36","type":"university","ukprn":10007832,"isAccreditedProvider":true,"accreditedProviderId":1523,"address":{"addressLine1":"Genners Lane","addressLine2":"Bartley Green","town":"Birmingham","county":"West Midlands","postcode":"B32 3NT"},"location":{"latitude":52.4341221,"longitude":-1.9950284,"regionCode":"F"},"contact":{"website":"https://www.newman.ac.uk/","email":"admissions@newman.ac.uk","telephone":"0121 483 2235"},"canSponsorSkilledWorkerVisa":false,"canSponsorStudentVisa":false},{"id":"e2cf6279-d7ec-4547-a2db-fd200f9f41ee","name":"NIoT@Inspiration Trust","code":"2H7","type":"scitt","ukprn":10090839,"isAccreditedProvider":false,"address":{"addressLine1":"Inspiration Teaching School Hub","addressLine2":"256 Hall Road","town":"Norwich","county":"Norfolk","postcode":"NR1 2RN"},"location":{"latitude":52.6120537,"longitude":1.2925466,"regionCode":"G"},"contact":{"website":"www.inspirationteachertraining.org","email":"teaching@inspirationtrust.org","telephone":"01603 733446"},"canSponsorSkilledWorkerVisa":false,"canSponsorStudentVisa":false},{"id":"cd39c035-13e1-4ec7-9b18-bc204ea4dd21","name":"Norfolk Teacher Training Centre","code":"N43","type":"scitt","ukprn":10004772,"isAccreditedProvider":true,"accreditedProviderId":5627,"address":{"addressLine1":"Norfolk Teacher Training Centre","addressLine2":"City College Norwich","addressLine3":"5 Ipswich Road","town":"Norwich","postcode":"NR2 2LJ"},"location":{"latitude":52.6181444,"longitude":1.2863249,"regionCode":"G"},"contact":{"website":"http://www.norfolkttc.org.uk/","email":"EnquiriesNTTC@ccn.ac.uk","telephone":"01603 773708"},"canSponsorSkilledWorkerVisa":false,"canSponsorStudentVisa":false},{"id":"fd13f643-b47d-49f9-9ccd-97c2a08d1bc1","name":"Norfolk, Essex and Suffolk Teacher Training (NESTT)","code":"S14","type":"scitt","ukprn":10006399,"isAccreditedProvider":true,"accreditedProviderId":5541,"address":{"addressLine1":"120 Star Lane","town":"Ipswich","county":"Suffolk","postcode":"IP4 1JN"},"location":{"latitude":52.05376380000001,"longitude":1.1622866,"regionCode":"G"},"contact":{"website":"https://www.nestt.org.uk","email":"enquiries@nestt.org.uk","telephone":"01473 265077"},"canSponsorSkilledWorkerVisa":false,"canSponsorStudentVisa":false},{"id":"4b850cd4-23fa-47f9-9e8f-d0e692adf854","name":"North East Partnership SCITT (Physical Education)","code":"N55","type":"scitt","ukprn":10003503,"isAccreditedProvider":false,"address":{"addressLine1":"John Spence Community High School","addressLine2":"Preston Road","town":"North Shields","county":"Tyne and Wear","postcode":"NE29 9PU"},"location":{"latitude":55.0220107,"longitude":-1.4502715,"regionCode":"A"},"contact":{"website":"http://www.nepscitt.co.uk","email":"sarah.ramsden@nepscitt.co.uk","telephone":"01912961432"},"canSponsorSkilledWorkerVisa":false,"canSponsorStudentVisa":false},{"id":"982886f8-75b8-4422-b3cb-a397907c66d6","name":"North Essex Teacher Training (NETT)","code":"N46","type":"scitt","ukprn":10020534,"isAccreditedProvider":false,"address":{"addressLine1":"Tendring Education Centre","addressLine2":"Jaywick Lane","town":"Clacton-on-Sea","county":"Essex","postcode":"CO16 8BE"},"location":{"latitude":51.7922881,"longitude":1.1198872,"regionCode":"G"},"contact":{"website":"http://www.nett.org.uk","email":"angie.chapman@nett.org.uk","telephone":"01255 431 949"},"canSponsorSkilledWorkerVisa":false,"canSponsorStudentVisa":false},{"id":"e2197ffe-093c-4d41-93c2-eab4c6a1b0b7","name":"North Lincolnshire SCITT Partnership","code":"N66","type":"scitt","ukprn":10004694,"isAccreditedProvider":true,"accreditedProviderId":5590,"address":{"addressLine1":"UCNL","addressLine2":"Ashby Road","town":"Scunthorpe","county":"North Lincolnshire","postcode":"DN16 1AB"},"location":{"latitude":53.5727689,"longitude":-0.6228897,"regionCode":"D"},"contact":{"website":"https://www.northlincs.gov.uk/schools-libraries-and-learning/train-to-teach-in-north-lincolnshire/","email":"vicky.crossley@northlincs.gov.uk","telephone":"01724 297119"},"canSponsorSkilledWorkerVisa":false,"canSponsorStudentVisa":false},{"id":"bf89b3a3-20e9-47f7-b859-f52898ba03da","name":"North Manchester ITT Partnership","code":"25K","type":"scitt","ukprn":10058252,"isAccreditedProvider":false,"address":{"addressLine1":"Silchester Drive","town":"Manchester","county":"Greater Manchester","postcode":"M40 8NT"},"location":{"latitude":53.5019478,"longitude":-2.2139325,"regionCode":"B"},"contact":{"website":"http://www.teachnorthmanchester.com","email":"NMITTP@mca.manchester.sch.uk","telephone":"0161 202 0161"},"canSponsorSkilledWorkerVisa":false,"canSponsorStudentVisa":false},{"id":"5fc68d96-7dda-4558-8a17-5fc93cf08bcc","name":"North Tyneside SCITT","code":"N73","type":"scitt","ukprn":10004714,"isAccreditedProvider":true,"accreditedProviderId":5567,"address":{"addressLine1":"North Tyneside SCITT","addressLine2":"Langdale Centre, Langdale Gardens","town":"Wallsend","county":"Tyne and Wear","postcode":"NE28 0HG"},"location":{"latitude":55.0058417,"longitude":-1.4974748,"regionCode":"A"},"contact":{"website":"https://ntscitt.org.uk/","email":"scitt@northtyneside.gov.uk","telephone":"0191 643 8855"},"canSponsorSkilledWorkerVisa":false,"canSponsorStudentVisa":false},{"id":"d085b9f9-a671-434b-90cc-5c1d8d1f449d","name":"North West SHARES SCITT","code":"N83","type":"scitt","ukprn":10040125,"isAccreditedProvider":false,"address":{"addressLine1":"North West SHARES SCITT","addressLine2":"Woodland Primary Teaching School","town":"Skelmersdale","county":"Lancashire","postcode":"WN8 6QH"},"location":{"latitude":53.5565994,"longitude":-2.7674249,"regionCode":"B"},"contact":{"website":"www.northwestscitt.com","email":"ddavies@woodland.lancs.sch.uk","telephone":"01695 557488"},"canSponsorSkilledWorkerVisa":false,"canSponsorStudentVisa":false},{"id":"38a09176-5b36-4968-b46f-9e61e402ecd5","name":"North Wiltshire SCITT","code":"24U","type":"scitt","ukprn":10058663,"isAccreditedProvider":false,"address":{"addressLine1":"North Wiltshire SCITT, Teacher Education Centre","addressLine2":"Royal Wootton Bassett Academy, Lime Kiln","town":"Swindon","county":"Wiltshire","postcode":"SN4 7HG"},"location":{"latitude":51.5462476,"longitude":-1.9004051,"regionCode":"K"},"contact":{"website":"http://www.nwscitt.org.uk","email":"admin@nwscitt.org.uk","telephone":"01793 781511"},"canSponsorSkilledWorkerVisa":false,"canSponsorStudentVisa":false},{"id":"c0a246b4-4863-4ff2-ba8c-2c3eb55cbed4","name":"Northampton Teacher Training Partnership","code":"N42","type":"scitt","ukprn":10031382,"isAccreditedProvider":true,"accreditedProviderId":5527,"address":{"addressLine1":"c/o Northampton School for Boys","addressLine2":"Billing Road","town":"Northampton","county":"Northamptonshire","postcode":"NN1 5RT"},"location":{"latitude":52.239216,"longitude":-0.8675526,"regionCode":"E"},"contact":{"website":"http://www.ntctsa.co.uk/teacher-training-nttp","email":"nttp@nsb.northants.sch.uk","telephone":"01604 258662"},"canSponsorSkilledWorkerVisa":false,"canSponsorStudentVisa":false},{"id":"0e0d1437-30a6-4294-9d97-40d0455ecafb","name":"Northern Lights SCITT","code":"255","type":"scitt","ukprn":10057355,"isAccreditedProvider":false,"address":{"addressLine1":"Skipton Girls' High School","addressLine2":"Gargrave Road","town":"Skipton","county":"North Yorkshire","postcode":"BD23 1QL"},"location":{"latitude":53.9638079,"longitude":-2.0273384,"regionCode":"D"},"contact":{"website":"http://www.northernlightsscitt.com/","email":"smithh@northernlightstsa.org","telephone":"01756 707628"},"canSponsorSkilledWorkerVisa":false,"canSponsorStudentVisa":false},{"id":"55f80539-97c3-4646-9300-8d852f67d8d4","name":"Nottingham Trent University","code":"N91","type":"university","ukprn":10004797,"isAccreditedProvider":true,"accreditedProviderId":1524,"address":{"addressLine1":"50 Shakespeare Street","town":"Nottingham","county":"Nottinghamshire","postcode":"NG1 4FQ"},"location":{"latitude":52.9577373,"longitude":-1.1505781,"regionCode":"E"},"contact":{"website":"http://www.ntu.ac.uk/teach","email":"ttapplications@ntu.ac.uk","telephone":"0115 848 4200"},"canSponsorSkilledWorkerVisa":false,"canSponsorStudentVisa":true},{"id":"c449d35e-d704-442f-9651-e77fcff23ff4","name":"Nottinghamshire TORCH SCITT","code":"254","type":"scitt","ukprn":10055362,"isAccreditedProvider":true,"accreditedProviderId":5662,"address":{"addressLine1":"University of Nottingham Innovation Park","addressLine2":"Triumph Road","town":"Nottingham","county":"Nottinghamshire","postcode":"NG7 2TU"},"location":{"latitude":52.9519022,"longitude":-1.1838099,"regionCode":"E"},"contact":{"website":"http://www.teachnottinghamshire.co.uk/","email":"rrimmington@toothillschool.co.uk","telephone":"01949 863023"},"canSponsorSkilledWorkerVisa":false,"canSponsorStudentVisa":false},{"id":"9cae3eff-4b72-4ee4-addd-a545649425f1","name":"One Cumbria Teaching School Hub","code":"1A3","type":"scitt","urn":135632,"ukprn":10024318,"isAccreditedProvider":true,"accreditedProviderId":5719,"location":{"regionCode":"B"},"contact":{"email":"beddoet@onecumbria.education","telephone":"07510 927981"},"canSponsorSkilledWorkerVisa":false,"canSponsorStudentVisa":false},{"id":"aca234cf-8554-4524-b4fc-ba83f247a4a4","name":"Oxford Brookes University","code":"O66","type":"university","urn":133864,"ukprn":10004930,"isAccreditedProvider":true,"accreditedProviderId":1526,"address":{"addressLine1":"Headington Road","addressLine2":"Headington","town":"Oxford","county":"Oxfordshire","postcode":"OX3 0BP"},"location":{"latitude":51.7543803,"longitude":-1.2232004,"regionCode":"J"},"contact":{"website":"https://www.brookes.ac.uk","email":"admissions@brookes.ac.uk","telephone":"01865 484 848"},"canSponsorSkilledWorkerVisa":false,"canSponsorStudentVisa":true},{"id":"050c4596-12aa-415a-95d4-568b09a4e9d3","name":"Oxford University","code":"O33","type":"university","ukprn":10007774,"isAccreditedProvider":true,"accreditedProviderId":1556,"address":{"addressLine1":"Department of Education","addressLine2":"15 Norham Gardens","town":"Oxford","county":"Oxfordshire","postcode":"OX2 6PY"},"location":{"latitude":51.7637163,"longitude":-1.2556578,"regionCode":"J"},"contact":{"website":"https://www.ox.ac.uk/admissions/graduate/courses/pgce?wssl=1","email":"pgce.admissions@education.ox.ac.uk","telephone":"01865274020"},"canSponsorSkilledWorkerVisa":false,"canSponsorStudentVisa":true},{"id":"0d518526-0524-403a-9dcf-6e9bd50c4bf4","name":"Oxfordshire Teacher Training","code":"24T","type":"scitt","ukprn":10046745,"isAccreditedProvider":true,"address":{"addressLine1":"Oxfordshire Teacher Training","addressLine2":"The Cherwell School","addressLine3":"Marston Ferry Road","town":"Oxford","county":"Oxfordshire","postcode":"OX2 7EE"},"location":{"latitude":51.7749829,"longitude":-1.2614584,"regionCode":"J"},"contact":{"website":"http://www.oxfordshireteachertraining.co.uk/","email":"info@ott-scitt.org.uk","telephone":"01865 518209"},"canSponsorSkilledWorkerVisa":false,"canSponsorStudentVisa":false},{"id":"0af30b4d-74ba-48b3-96b5-2991b40c31ff","name":"Partnership London SCITT (PLS)","code":"2B1","type":"scitt","ukprn":10053276,"isAccreditedProvider":true,"accreditedProviderId":5699,"address":{"addressLine1":"c/o Sydney Russell School","town":"Dagenham","postcode":"RM9 5QT"},"location":{"latitude":51.5487461,"longitude":0.1325001,"regionCode":"H"},"contact":{"website":"www.partnershiplondonscitt.com","email":"info@partnershiplondon.com","telephone":"02039599907"},"canSponsorSkilledWorkerVisa":false,"canSponsorStudentVisa":false},{"id":"89492b96-e8bf-4f26-a863-b29bf85aae27","name":"Pennine Lancashire SCITT","code":"P38","type":"scitt","ukprn":10014787,"isAccreditedProvider":false,"address":{"addressLine1":"The Hollins","addressLine2":"Hollins Lane","town":"Accrington","postcode":"BB5 2QY"},"location":{"latitude":53.7385144,"longitude":-2.3524259,"regionCode":"B"},"contact":{"website":"http://www.plscitt.org.uk/","email":"stubbsl@thehollins.com","telephone":"01254233500"},"canSponsorSkilledWorkerVisa":false,"canSponsorStudentVisa":false},{"id":"e4454597-1aa8-49fa-ad65-ffaf13ba8971","name":"Pioneers Partnership SCITT","code":"1Z8","type":"scitt","ukprn":10058215,"isAccreditedProvider":true,"accreditedProviderId":5678,"address":{"addressLine1":"Kenyon Lane","addressLine2":"Middleton","town":"Manchester","county":"Lancashire","postcode":"M24 2GT"},"location":{"latitude":53.54744059999999,"longitude":-2.1796014,"regionCode":"B"},"contact":{"website":"https://pioneerspartnership.greatacademies.co.uk","email":"mtsvrobinson@middtech.com","telephone":"01616435116"},"canSponsorSkilledWorkerVisa":false,"canSponsorStudentVisa":false},{"id":"515bbdb9-b4f2-431c-a9f2-7058a7de5308","name":"Plymouth Marjon University","code":"P63","type":"university","ukprn":10037449,"isAccreditedProvider":true,"accreditedProviderId":1508,"address":{"addressLine1":"Derriford Road","town":"Plymouth","county":"Devon","postcode":"PL6 8BH"},"location":{"latitude":50.4208655,"longitude":-4.1107578,"regionCode":"K"},"contact":{"website":"http://www.marjon.ac.uk","email":"admissions@marjon.ac.uk","telephone":"01752 636 890"},"canSponsorSkilledWorkerVisa":false,"canSponsorStudentVisa":true},{"id":"38210f47-5769-43a7-a8f8-0d8631f16759","name":"Poole SCITT","code":"P75","type":"scitt","ukprn":10057353,"isAccreditedProvider":true,"accreditedProviderId":5505,"address":{"addressLine1":"Ad Astra Infant School","addressLine2":"Sherborn Crescent","town":"Poole","county":"Dorset","postcode":"BH17 8AP"},"location":{"latitude":50.74893609999999,"longitude":-1.9648945,"regionCode":"K"},"contact":{"website":"www.poolescitt.co.uk","email":"hbscitt@adastra.poole.sch.uk","telephone":"01202 605315"},"canSponsorSkilledWorkerVisa":false,"canSponsorStudentVisa":false},{"id":"528c7ef2-c35e-40bd-92aa-07e9146a0063","name":"Portsmouth Primary SCITT","code":"P82","type":"scitt","ukprn":10042780,"isAccreditedProvider":true,"accreditedProviderId":5532,"address":{"addressLine1":"Portsmouth Primary SCITT","addressLine2":"c/o Stamshaw Junior School","town":"Portsmouth","county":"Hampshire","postcode":"PO2 8QH"},"location":{"latitude":50.8224926,"longitude":-1.0871088,"regionCode":"J"},"contact":{"website":"http://www.portsmouthscitt.co.uk","email":"admin@portsmouthscitt.co.uk","telephone":"023 9237 3432"},"canSponsorSkilledWorkerVisa":false,"canSponsorStudentVisa":false},{"id":"e04e1ba0-8c49-41af-9e39-1047312ce99e","name":"Prestolee SCITT","code":"2AS","type":"scitt","ukprn":10055218,"isAccreditedProvider":true,"accreditedProviderId":5685,"address":{"addressLine1":"Prestolee Primary School","addressLine2":"Church Road","town":"Manchester","county":"Greater Manchester","postcode":"M26 1HJ"},"location":{"latitude":53.5484451,"longitude":-2.3715506,"regionCode":"B"},"contact":{"website":"https://www.prestoleescitt.co.uk/","email":"itt@prestoleetsa.org.uk","telephone":"01204 333485"},"canSponsorSkilledWorkerVisa":false,"canSponsorStudentVisa":false},{"id":"028e5469-c51a-4ebb-905f-9ef2a657da98","name":"Primary Catholic Partnership SCITT (PCP SCITT)","code":"P85","type":"scitt","ukprn":10045987,"isAccreditedProvider":true,"accreditedProviderId":5533,"address":{"addressLine1":"c/o Holy Family Catholic Primary School","addressLine2":"Mansel Road West","town":"Southampton","county":"Hampshire","postcode":"SO16 9LP"},"location":{"latitude":50.93083619999999,"longitude":-1.4641875,"regionCode":"J"},"contact":{"website":"http://www.pcp-scitt.org.uk","email":"admin@pcp-scitt.org.uk","telephone":"023 8077 9753"},"canSponsorSkilledWorkerVisa":false,"canSponsorStudentVisa":false},{"id":"06e54b99-0d40-4c18-9207-d9e1bb5112ba","name":"Prince Henry's High School & South Worcestershire SCITT","code":"2ET","type":"scitt","ukprn":10032987,"isAccreditedProvider":false,"address":{"addressLine1":"Prince Henry's High School","addressLine2":"Victoria Avenue","town":"Evesham","county":"Worcestershire","postcode":"WR11 4QH"},"location":{"latitude":52.09890499999999,"longitude":-1.9413713,"regionCode":"F"},"contact":{"website":"https://www.phhscitt.co.uk/","email":"ad@princehenrys.worcs.sch.uk","telephone":"01386765588"},"canSponsorSkilledWorkerVisa":false,"canSponsorStudentVisa":false},{"id":"4f41cf2d-c8b5-4a75-8394-57ee30879447","name":"REAch Teach Primary Partnership","code":"1QU","type":"scitt","urn":100706,"ukprn":10060390,"isAccreditedProvider":true,"accreditedProviderId":5729,"address":{"addressLine1":"Tidemill Academy","addressLine2":"11 Giffin Street","addressLine3":"Deptford","town":"London","postcode":"SE8 4RJ"},"location":{"latitude":51.4774793,"longitude":-0.023593,"regionCode":"H"},"contact":{"website":"http://www.reachteach.org","email":"reachteach@reach2.org","telephone":"01283 246433"},"canSponsorSkilledWorkerVisa":false,"canSponsorStudentVisa":false},{"id":"f5432b96-7169-4457-8cbf-4e29f353ee98","name":"Red Kite Teacher Training","code":"2B9","type":"scitt","ukprn":10054307,"isAccreditedProvider":true,"accreditedProviderId":5706,"address":{"addressLine1":"Harrogate Grammar School","addressLine2":"Arthurs Avenue","town":"Harrogate","county":"North Yorkshire","postcode":"HG2 0DZ"},"location":{"latitude":53.98337979999999,"longitude":-1.5473994,"regionCode":"D"},"contact":{"website":"https://redkiteteachertraining.co.uk/","email":"TeacherTraining@redkitealliance.co.uk","telephone":"01423 535646"},"canSponsorSkilledWorkerVisa":false,"canSponsorStudentVisa":false},{"id":"22e6540d-9a70-4d6a-b19a-e96692128cda","name":"Redcar and Cleveland Teacher Training Partnership","code":"R16","type":"scitt","ukprn":10005413,"isAccreditedProvider":true,"address":{"addressLine1":"Inspire 2 Learn","addressLine2":"Normanby Road","town":"Middlesbrough","county":"Middlesbrough","postcode":"TS6 9AE"},"location":{"latitude":54.569561,"longitude":-1.1654928,"regionCode":"A"},"contact":{"website":"http://rcttp.org.uk/","email":"rcttpinfo@redcar-cleveland.gov.uk","telephone":"01642 513659"},"canSponsorSkilledWorkerVisa":false,"canSponsorStudentVisa":false},{"id":"14e53098-3565-46ed-9c29-0e68d5fab900","name":"Ripley ITT","code":"R23","type":"scitt","ukprn":10058677,"isAccreditedProvider":true,"accreditedProviderId":5648,"address":{"addressLine1":"Ashton Road","town":"Lancaster","county":"Lancashire","postcode":"LA1 4RS"},"location":{"latitude":54.0392368,"longitude":-2.800799,"regionCode":"B"},"contact":{"website":"www.ripleyitt.co.uk","email":"ITT@ripley.lancs.sch.uk","telephone":"01524 64496"},"canSponsorSkilledWorkerVisa":false,"canSponsorStudentVisa":false},{"id":"0084da01-8ed4-439d-87d6-fa0a47056969","name":"Roehampton University","code":"R48","type":"university","ukprn":10007776,"isAccreditedProvider":true,"address":{"addressLine1":"Roehampton University","addressLine2":"Roehampton lane","town":"London","postcode":"SW15 5PU"},"location":{"latitude":51.4568013,"longitude":-0.2441018,"regionCode":"H"},"contact":{"website":"https://www.roehampton.ac.uk/teacher-training/","email":"teachertraining@roehampton.ac.uk","telephone":"0208 392 3314"},"canSponsorSkilledWorkerVisa":false,"canSponsorStudentVisa":true},{"id":"55cf3a1c-5c6f-4d5e-8095-d8c0809f1212","name":"Royal Academy of Dance","code":"R55","type":"university","ukprn":10005544,"isAccreditedProvider":false,"address":{"addressLine1":"Royal Academy of Dance: Faculty of Education","addressLine2":"188 York Road","addressLine3":"Wandsworth","town":"London","postcode":"SW11 3JZ"},"location":{"latitude":51.4665194,"longitude":-0.1796755,"regionCode":"H"},"contact":{"website":"https://www.royalacademyofdance.org/study/higher-education/higher-education-1/postgraduate-certificate-in-education-dance-teaching-1","email":"faculty@rad.org.uk","telephone":"020 7326 8000"},"canSponsorSkilledWorkerVisa":false,"canSponsorStudentVisa":true},{"id":"bbe4e7f5-d0c5-4d78-88e7-287d1a54f142","name":"Sacred Heart Newcastle SCITT","code":"2BA","type":"scitt","ukprn":10059424,"isAccreditedProvider":true,"accreditedProviderId":5705,"address":{"addressLine1":"Fenhall Hall Drive","town":"Newcastle upon Tyne","county":"Newcastle upon Tyne","postcode":"NE4 9YH"},"location":{"latitude":54.9826813,"longitude":-1.6571455,"regionCode":"A"},"contact":{"website":"https://www.newcastlescitt.co.uk/","email":"joanne.smith@shhs.org.uk","telephone":"01912747373"},"canSponsorSkilledWorkerVisa":false,"canSponsorStudentVisa":false},{"id":"462a2ea9-2743-4fcd-98ab-5a9888a934bc","name":"Scarborough Teaching Alliance","code":"1YS","type":"scitt","urn":121267,"ukprn":10007149,"isAccreditedProvider":true,"accreditedProviderId":5736,"address":{"addressLine1":"Fieldstead Crescent","town":"Scarborough","county":"North Yorkshire","postcode":"YO12 6TH"},"location":{"latitude":54.292843,"longitude":-0.4353451,"regionCode":"D"},"contact":{"website":"http://www.scarboroughteachingalliance.co.uk","email":"e.birley@sc.coastandvale.academy","telephone":"01723362301"},"canSponsorSkilledWorkerVisa":false,"canSponsorStudentVisa":false},{"id":"8d23970b-0e56-4377-8e8f-249a57b4a1d8","name":"SCITT in East London Schools (SCITTELS)","code":"S17","type":"scitt","ukprn":10046003,"isAccreditedProvider":true,"accreditedProviderId":5535,"address":{"addressLine1":"SCITTELS, Colegrave Primary School","addressLine2":"Henniker Road","addressLine3":"Stratford","town":"London","postcode":"E15 1JY"},"location":{"latitude":51.5484024,"longitude":0.001446,"regionCode":"H"},"contact":{"website":"http://www.scittels.co.uk/","email":"David.Nott@colegrave.newham.sch.uk","telephone":"02085340243"},"canSponsorSkilledWorkerVisa":false,"canSponsorStudentVisa":false},{"id":"a9f7e34b-8dfc-4387-8321-fa47f489e32d","name":"Selby College","code":"S06","type":"university","urn":130592,"ukprn":10005741,"isAccreditedProvider":true,"address":{"addressLine1":"Selby College, Abbot's Road","town":"Selby","county":"Yorkshire and the Humber","postcode":"YO8 8AT"},"location":{"latitude":53.775065,"longitude":-1.0515451,"regionCode":"D"},"contact":{"email":"sunmanc@selby.ac.uk","telephone":"01757211114"}},{"id":"f34c9439-e679-4dc6-aead-4de5d98e3fbb","name":"Services for Education","code":"1WE","type":"scitt","ukprn":10046628,"isAccreditedProvider":true,"address":{"addressLine1":"Unit 3 Holt Court","addressLine2":"Holt Street","town":"Birmingham","postcode":"B7 4AX"},"location":{"latitude":52.4868019,"longitude":-1.8850315,"regionCode":"F"},"contact":{"website":"https://www.servicesforeducation.co.uk/scitt/?utm_source=gov&utm_medium=2021&utm_campaign=scitt","email":"tricia.bunn@servicesforeducation.co.uk","telephone":"07776599087"},"canSponsorSkilledWorkerVisa":false,"canSponsorStudentVisa":false},{"id":"9f5e3368-a04b-40f5-a844-8763e7edebc8","name":"Sheffield Hallam University","code":"S21","type":"university","urn":133871,"ukprn":10005790,"isAccreditedProvider":true,"address":{"addressLine1":"City Campus","addressLine2":"Pond Street","town":"Sheffield","county":"South Yorkshire","postcode":"S1 1WB"},"location":{"latitude":53.3791941,"longitude":-1.4652553,"regionCode":"D"},"contact":{"website":"http://www.shu.ac.uk","email":"admissions@shu.ac.uk","telephone":"0114 225 5533"},"canSponsorSkilledWorkerVisa":false,"canSponsorStudentVisa":false},{"id":"80c10eba-a508-4861-896d-0ca47054985d","name":"Somerset SCITT Consortium","code":"S31","type":"scitt","ukprn":10005959,"isAccreditedProvider":true,"accreditedProviderId":5538,"address":{"addressLine1":"Dillington House","town":"Ilminster","county":"Somerset","postcode":"TA19 9DT"},"location":{"latitude":50.9359222,"longitude":-2.9012594,"regionCode":"K"},"contact":{"website":"https://www.sciltraining.co.uk/scitt/","email":"SCIL@somerset.gov.uk","telephone":"03001231967"},"canSponsorSkilledWorkerVisa":false,"canSponsorStudentVisa":false},{"id":"ea601a44-02da-4f30-a432-acc9036b3df0","name":"South Birmingham SCITT","code":"N32","type":"scitt","ukprn":10052836,"isAccreditedProvider":true,"address":{"addressLine1":"South Birmingham SCITT","addressLine2":"Solihull Sixth Form College","town":"Solihull","county":"Solihull","postcode":"B91 3WR"},"location":{"latitude":52.4058642,"longitude":-1.772644,"regionCode":"F"},"contact":{"website":"www.southbirminghamscitt.org.uk","email":"carol.lewis@southbirminghamscitt.org.uk","telephone":"01217042581"},"canSponsorSkilledWorkerVisa":false,"canSponsorStudentVisa":false},{"id":"5d7e58c2-abae-4cde-8835-23db9a5a0d7f","name":"South West Teacher Training","code":"S66","type":"scitt","ukprn":10060466,"isAccreditedProvider":true,"accreditedProviderId":5540,"address":{"addressLine1":"West Exe School","addressLine2":"Hatherleigh Road","town":"Exeter","county":"Devon","postcode":"EX2 9JU"},"location":{"latitude":50.706746,"longitude":-3.5397985,"regionCode":"K"},"contact":{"website":"http://www.swtt.net","email":"swtt@westexe.devon.sch.uk","telephone":"01392 686 165"},"canSponsorSkilledWorkerVisa":false,"canSponsorStudentVisa":false},{"id":"389e4f62-d25c-4cf8-8948-38259f65cfb1","name":"St Joseph's College SCITT","code":"1WJ","type":"scitt","ukprn":10032965,"isAccreditedProvider":true,"accreditedProviderId":5608,"address":{"addressLine1":"St Joseph's College","addressLine2":"London Road","town":"Stoke-on-Trent","county":"Stoke-on-Trent","postcode":"ST4 5NT"},"location":{"latitude":52.9878135,"longitude":-2.1992103,"regionCode":"F"},"contact":{"website":"https://www.sjcscitt.co.uk/","email":"adavies3@stjosephsmail.com","telephone":"01782 418211"},"canSponsorSkilledWorkerVisa":false,"canSponsorStudentVisa":false},{"id":"4d03ab31-d6c9-40bf-8d4c-ceb398ad0c81","name":"St Mary's University, Twickenham","code":"S64","type":"university","urn":133895,"ukprn":10007843,"isAccreditedProvider":true,"accreditedProviderId":1530,"address":{"addressLine1":"Waldegrave Road","addressLine2":"Strawberry Hill, Twickenham","town":"Twickenham","county":"London","postcode":"TW1 4SX"},"location":{"latitude":51.4361516,"longitude":-0.3359066,"regionCode":"H"},"contact":{"website":"https://www.stmarys.ac.uk/teacher-training/about.aspx","email":"Apply@stmarys.ac.uk","telephone":"020 8240 2394"},"canSponsorSkilledWorkerVisa":false,"canSponsorStudentVisa":true},{"id":"e6db059d-817a-4f24-893c-b03cd764cf3c","name":"St. George's Academy Partnership","code":"G15","type":"scitt","ukprn":10029212,"isAccreditedProvider":false,"address":{"addressLine1":"St George's Academy Partnership","addressLine2":"Westgate","town":"Sleaford","county":"Lincolnshire","postcode":"NG34 7PP"},"location":{"latitude":52.9992184,"longitude":-0.4142476,"regionCode":"D"},"contact":{"website":"http://www.teacher-training.org","email":"wendy.procter@teacher-training.org","telephone":"01529 301193"},"canSponsorSkilledWorkerVisa":false,"canSponsorStudentVisa":false},{"id":"30e0afb6-c8fe-41ac-88a9-bee902c8fed9","name":"Staffordshire University","code":"S72","type":"university","ukprn":10006299,"isAccreditedProvider":true,"accreditedProviderId":1531,"address":{"addressLine1":"Recruitment and Admissions, E200 Blackstone Building","addressLine2":"College Road","town":"Stoke-on-Trent","county":"Staffordshire","postcode":"ST4 2DE"},"location":{"latitude":53.0092019,"longitude":-2.1803515,"regionCode":"F"},"contact":{"website":"https://www.staffs.ac.uk/courses/subjects/education","email":"enquiries@staffs.ac.uk","telephone":"01782294400"},"canSponsorSkilledWorkerVisa":false,"canSponsorStudentVisa":true},{"id":"4f37f58c-b78c-462a-a70d-4c44c40bf994","name":"Stockton-on-Tees Teacher Training Partnership","code":"S60","type":"scitt","ukprn":10006337,"isAccreditedProvider":true,"accreditedProviderId":5607,"address":{"addressLine1":"Block B - The Education Centre at SSFC","addressLine2":"Bishopton Road West","town":"Stockton-on-Tees","county":"Cleveland","postcode":"TS19 0QD"},"location":{"latitude":54.5711777,"longitude":-1.3400486,"regionCode":"A"},"contact":{"website":"http://www.stocktonscitt.uk/","email":"scitt@stockton.gov.uk","telephone":"01642 527675"},"canSponsorSkilledWorkerVisa":false,"canSponsorStudentVisa":false},{"id":"98a8d21e-63cf-4465-8e03-d26677866275","name":"Stourport SCITT","code":"S95","type":"scitt","ukprn":10058732,"isAccreditedProvider":true,"accreditedProviderId":5634,"address":{"addressLine1":"Wyre Forest House","addressLine2":"Fine Point Way","town":"Kidderminster","county":"Worcestershire","postcode":"DY11 7WF"},"location":{"latitude":52.3600505,"longitude":-2.2695723,"regionCode":"F"},"contact":{"website":"http://www.stourportscitt.com","email":"fgreen@saet.co.uk","telephone":"01562 542574"},"canSponsorSkilledWorkerVisa":false,"canSponsorStudentVisa":false},{"id":"5dcb0a79-0566-43a6-9cde-b890ac2c2f70","name":"Suffolk and Norfolk Primary SCITT","code":"S13","type":"scitt","ukprn":10006399,"isAccreditedProvider":false,"accreditedProviderId":5541,"address":{"addressLine1":"University of Suffolk","addressLine2":"Thomas Slade Court, 120 Star Lane","town":"Ipswich","county":"Suffolk","postcode":"IP4 1JN"},"location":{"latitude":52.05376380000001,"longitude":1.1622866,"regionCode":"G"},"contact":{"website":"https://www.suffolkandnorfolkscitt.co.uk/primary-teaching/Primary-SCITT-Tuition-PGCE","email":"enquiries@suffolkandnorfolkscitt.co.uk","telephone":"01473 265077"},"canSponsorSkilledWorkerVisa":false,"canSponsorStudentVisa":false},{"id":"e3261b17-4ca8-4013-8d07-e3b808d010c5","name":"Surrey South Farnham SCITT","code":"13S","type":"scitt","ukprn":10054050,"isAccreditedProvider":true,"accreditedProviderId":5579,"address":{"addressLine1":"Menin Way","town":"Farnham","postcode":"GU9 8DY"},"location":{"latitude":51.2093721,"longitude":-0.7859651999999999,"regionCode":"J"},"contact":{"website":"http://www.ssfscitt.org.uk","email":"scitt@sfet.org.uk","telephone":"01252 717408"},"canSponsorSkilledWorkerVisa":false,"canSponsorStudentVisa":false},{"id":"e343ab32-3547-464b-a643-f3a5a6ff4c7f","name":"Sutton Park SCITT","code":"25D","type":"scitt","ukprn":10035849,"isAccreditedProvider":false,"address":{"addressLine1":"Queslett Road East","town":"Sutton Coldfield","county":"West Midlands","postcode":"B74 2EX"},"location":{"latitude":52.56810369999999,"longitude":-1.8822229,"regionCode":"F"},"contact":{"website":"http://suttonpark-scitt.weebly.com/","email":"S.Cormell@thestreetlyacademy.co.uk","telephone":"07309 708236"},"canSponsorSkilledWorkerVisa":false,"canSponsorStudentVisa":false},{"id":"74a3f24e-4648-426a-ab6d-db41eacdd197","name":"Sutton SCITT","code":"1ZW","type":"scitt","ukprn":10058739,"isAccreditedProvider":true,"accreditedProviderId":5651,"address":{"addressLine1":"Glenthorne High School","addressLine2":"270 Sutton Common Road","town":"Sutton","county":"Surrey","postcode":"SM3 9PS"},"location":{"latitude":51.3810611,"longitude":-0.2012301,"regionCode":"H"},"contact":{"website":"http://www.suttonteach.org.uk","email":"rfa@glenthorne.sutton.sch.uk","telephone":"020 8410 0006"},"canSponsorSkilledWorkerVisa":false,"canSponsorStudentVisa":false},{"id":"131dd8ea-4002-4831-a602-8447ad42d376","name":"SWIFT Teacher Training","code":"3S3","type":"scitt","ukprn":10058417,"isAccreditedProvider":true,"address":{"addressLine1":"SWIFT Teacher Training Central Administrative Office","addressLine2":"Kingsbridge Community College","addressLine3":"Balkwill Road","town":"Kingsbridge","county":"Devon","postcode":"TQ7 1PL"},"location":{"latitude":50.2807903,"longitude":-3.7831482,"regionCode":"K"},"contact":{"website":"https://www.swiftteachertraining.org.uk","email":"info@swiftteachertraining.org.uk","telephone":"01548 852641"},"canSponsorSkilledWorkerVisa":false},{"id":"b4ec4ae8-45d3-4917-a693-d68e9a3e765f","name":"Teach East","code":"T11","type":"scitt","ukprn":10058314,"isAccreditedProvider":false,"address":{"addressLine1":"Helpston Road","town":"Peterborough","county":"Cambridgeshire","postcode":"PE6 7JX"},"location":{"latitude":52.6375196,"longitude":-0.3027468,"regionCode":"G"},"contact":{"website":"www.teacheast.co.uk","email":"office@teacheast.org.uk","telephone":"01733 252235"},"canSponsorSkilledWorkerVisa":false,"canSponsorStudentVisa":false},{"id":"9c11c00c-4d14-497e-b157-e0b59e958cba","name":"Teach First","code":"1TF","type":"scitt","ukprn":10024318,"isAccreditedProvider":true,"accreditedProviderId":5719,"location":{"regionCode":"Z"},"contact":{"email":"schoolpartnerships@teachfirst.org.uk","telephone":"0203 862 8000"},"canSponsorSkilledWorkerVisa":false,"canSponsorStudentVisa":false},{"id":"bbdf693f-49a1-4311-b475-69a11ac6b656","name":"Teach Kent & Sussex","code":"2EZ","type":"scitt","ukprn":10058549,"isAccreditedProvider":false,"address":{"addressLine1":"Bennett Memorial Diocesan School","addressLine2":"Culverden Down","town":"Tunbridge Wells","county":"Kent","postcode":"TN4 9SH"},"location":{"latitude":51.1426786,"longitude":0.247921,"regionCode":"J"},"contact":{"website":"http://www.teachkentandsussex.org.uk","email":"contact@teachkentandsussex.org.uk","telephone":"01892 521595"},"canSponsorSkilledWorkerVisa":false,"canSponsorStudentVisa":false},{"id":"6905fc04-07e9-4832-ba29-8822b6aa9ab1","name":"Teach SouthEast","code":"2EW","type":"scitt","urn":143367,"ukprn":10057399,"isAccreditedProvider":true,"accreditedProviderId":5709,"address":{"addressLine1":"Xavier MAT, Salesian School","addressLine2":"Guildford Road","town":"Chertsey","county":"Surrey","postcode":"KT16 9LU"},"location":{"latitude":51.3817812,"longitude":-0.5186564,"regionCode":"J"},"contact":{"website":"www.teachsoutheast.co.uk","email":"c.williams@xaviercet.org.uk","telephone":"01932 578682"},"canSponsorSkilledWorkerVisa":false,"canSponsorStudentVisa":false},{"id":"dd90379e-540d-45fb-b653-bf5025416152","name":"Teach West London Teaching School Hub","code":"1KV","type":"scitt","urn":101933,"ukprn":10035500,"isAccreditedProvider":true,"accreditedProviderId":5737,"address":{"addressLine1":"c/o Ada Lovelace High School","addressLine2":"Park View Road","addressLine3":"Ealing","town":"London","postcode":"W5 2JX"},"location":{"latitude":51.5192695,"longitude":-0.295317,"regionCode":"H"},"contact":{"website":"https://teachwestlondon.org.uk/initial-teacher-training","email":"ITT@teachwestlondon.org.uk","telephone":"020 8752 0141"},"canSponsorSkilledWorkerVisa":false,"canSponsorStudentVisa":false},{"id":"9eb92e71-9f3b-4476-915b-dca2990c71f3","name":"Teaching London: LDBS SCITT","code":"L59","type":"scitt","ukprn":10046787,"isAccreditedProvider":true,"accreditedProviderId":5523,"address":{"addressLine1":"2 West End Lane","town":"London","postcode":"NW6 4NT"},"location":{"latitude":51.5385575,"longitude":-0.1931383,"regionCode":"H"},"contact":{"website":"www.teachinglondon.org","email":"admin@teachinglondon.org","telephone":"02079321126"},"canSponsorSkilledWorkerVisa":false,"canSponsorStudentVisa":false},{"id":"a57a03ca-f9f7-42d0-b7f8-c2dc0fadf8c8","name":"Teesside University","code":"3S1","type":"university","ukprn":10007161,"isAccreditedProvider":true,"accreditedProviderId":1587,"address":{"addressLine1":"Teesside University","addressLine2":"Borough Road","town":"Middlesbrough","postcode":"TS1 3BX"},"location":{"latitude":54.5703743,"longitude":-1.2369843,"regionCode":"A"},"contact":{"website":"https://www.tees.ac.uk/","email":"TeacherTrainingAdmissions@tees.ac.uk","telephone":"01642 218121"},"canSponsorSkilledWorkerVisa":false,"canSponsorStudentVisa":true},{"id":"445031ee-c930-404a-a209-621c29f9ddf8","name":"Tes Institute","code":"H40","type":"scitt","ukprn":10035578,"isAccreditedProvider":true,"accreditedProviderId":5708,"address":{"addressLine1":"Tes Global, St Paul's Place,","addressLine2":"Norfolk Street, Sheffield,","town":"Sheffield","postcode":"S1 2JE"},"location":{"latitude":53.3793757,"longitude":-1.4691894,"regionCode":"D"},"contact":{"website":"https://www.tes.com/institute","email":"Kieron.Base@tes.com","telephone":"0203 194 3200"},"canSponsorSkilledWorkerVisa":false,"canSponsorStudentVisa":false},{"id":"df6a6a42-fd20-4b29-956f-fed50185b30a","name":"Thamesmead SCITT","code":"T26","type":"scitt","ukprn":10034809,"isAccreditedProvider":false,"address":{"addressLine1":"Manygate Lane","town":"Shepperton","county":"Surrey","postcode":"TW17 9EE"},"location":{"latitude":51.39475540000001,"longitude":-0.442241,"regionCode":"J"},"contact":{"website":"http://thamesmeadscitt.co.uk","email":"s.sandy@thamesmead.surrey.sch.uk","telephone":"01932 219412"},"canSponsorSkilledWorkerVisa":false,"canSponsorStudentVisa":false},{"id":"86d2b67d-0c98-4950-bc2e-c37dd8b77c51","name":"The Basingstoke Alliance SCITT","code":"B17","type":"scitt","ukprn":10034865,"isAccreditedProvider":false,"address":{"addressLine1":"The Basingstoke Alliance Scitt","addressLine2":"Dove House School, Sutton Road","town":"Basingstoke","county":"Hampshire","postcode":"RG21 5SU"},"location":{"latitude":51.2747055,"longitude":-1.0886718,"regionCode":"J"},"contact":{"website":"http://www.basingstokealliancescitt.com","email":"krichens@dovehouseacademy.com","telephone":"01256 275002"},"canSponsorSkilledWorkerVisa":false,"canSponsorStudentVisa":false},{"id":"ec106a35-ecfe-4fcb-a788-814a55d8a407","name":"The Buckingham Partnership","code":"1SH","type":"scitt","ukprn":10035071,"isAccreditedProvider":true,"accreditedProviderId":5622,"address":{"addressLine1":"Royal Latin School","addressLine2":"Chandos Road","town":"Buckingham","postcode":"MK18 1AX"},"location":{"latitude":51.993477,"longitude":-0.9861568000000001,"regionCode":"J"},"contact":{"website":"https://www.bpscitt.uk/","email":"info@bpscitt.uk","telephone":"01280 827377"},"canSponsorSkilledWorkerVisa":false,"canSponsorStudentVisa":false},{"id":"1e173d73-e712-41a3-bd8d-b008f2edb50f","name":"The Cambridge Partnership","code":"C03","type":"scitt","ukprn":10053421,"isAccreditedProvider":true,"accreditedProviderId":5602,"address":{"addressLine1":"Meridian Trust - Swavesey Village College","addressLine2":"Gibraltar Lane, Swavesey","town":"Cambridge","county":"Cambridgeshire","postcode":"CB24 4RN"},"location":{"latitude":52.2968955,"longitude":-0.0032107,"regionCode":"G"},"contact":{"website":"http://www.campartnership.org","email":"info@campartnership.org","telephone":"01223 491630"},"canSponsorSkilledWorkerVisa":false,"canSponsorStudentVisa":false},{"id":"069b86ba-4ffa-406e-9b9f-4267523ed82d","name":"The Coventry SCITT","code":"2A7","type":"scitt","ukprn":10049725,"isAccreditedProvider":true,"address":{"addressLine1":"Sidney Stringer Academy","addressLine2":"2 Primrose Hill Street","town":"Coventry","postcode":"CV1 5LY"},"location":{"latitude":52.4131109,"longitude":-1.5027536,"regionCode":"F"},"contact":{"website":"www.coventryscitt.org.uk/","email":"info@coventryscitt.org.uk","telephone":"02476 251756"},"canSponsorSkilledWorkerVisa":false,"canSponsorStudentVisa":false},{"id":"dfa154e5-ef8e-4a50-9b61-a853086491dc","name":"The Deepings SCITT","code":"C36","type":"scitt","ukprn":10058447,"isAccreditedProvider":false,"address":{"addressLine1":"The Deepings SCITT (The Deepings School)","addressLine2":"Park Road","town":"Peterborough","county":"Lincolnshire","postcode":"PE6 8NF"},"location":{"latitude":52.6737933,"longitude":-0.2980872,"regionCode":"D"},"contact":{"website":"www.deepingscitt.org.uk","email":"ddimeloe@deepings.anthemtrust.uk","telephone":"01778 342159"},"canSponsorSkilledWorkerVisa":false,"canSponsorStudentVisa":false},{"id":"3d06cccb-b3e5-4312-b7e2-b0b187af14d3","name":"The Grand Union Training Partnership","code":"G60","type":"scitt","ukprn":10058513,"isAccreditedProvider":true,"accreditedProviderId":5519,"address":{"addressLine1":"Sponne School","addressLine2":"Brackley Road","town":"Towcester","county":"Northamptonshire","postcode":"NN12 6DJ"},"location":{"latitude":52.131662,"longitude":-0.9949450999999999,"regionCode":"E"},"contact":{"website":"http://www.gutp.co.uk","email":"gutprecruitment@sponne.org.uk","telephone":"01327 350284 ext. 253"},"canSponsorSkilledWorkerVisa":false,"canSponsorStudentVisa":false},{"id":"74ee1fcf-30f2-4394-ac80-2966f125f4d6","name":"The Hampshire SCITT Partnership","code":"1X9","type":"scitt","ukprn":10033571,"isAccreditedProvider":false,"address":{"addressLine1":"Thornden School","addressLine2":"Winchester Road","town":"Eastleigh","county":"Hampshire","postcode":"SO53 2DW"},"location":{"latitude":50.994507,"longitude":-1.3629694,"regionCode":"J"},"contact":{"website":"www.hampshirescitt.org.uk","email":"info@hampshirescitt.org.uk","telephone":"023 8024 6950"},"canSponsorSkilledWorkerVisa":false,"canSponsorStudentVisa":false},{"id":"e12d2722-5f97-44ab-9e5c-a8375592d212","name":"The Havering Teacher Training Partnership","code":"H17","type":"scitt","ukprn":10059123,"isAccreditedProvider":false,"address":{"addressLine1":"Bower Park Academy","addressLine2":"Havering Road","town":"Romford","county":"Essex","postcode":"RM1 4YY"},"location":{"latitude":51.6058805,"longitude":0.1802788,"regionCode":"H"},"contact":{"website":"www.haveringteachertraining.co.uk","email":"admin@haveringteachertraining.co.uk","telephone":"01708 255006"},"canSponsorSkilledWorkerVisa":false,"canSponsorStudentVisa":false},{"id":"92f275d8-9d93-49fd-b5b0-8ae83350d156","name":"The John Taylor SCITT","code":"24V","type":"scitt","ukprn":10057362,"isAccreditedProvider":true,"accreditedProviderId":5667,"address":{"addressLine1":"John Taylor High School","addressLine2":"Dunstall Road","town":"Burton-on-Trent","county":"Staffordshire","postcode":"DE13 8AX"},"location":{"latitude":52.7656456,"longitude":-1.7219736,"regionCode":"F"},"contact":{"website":"https://jtscitt.co.uk/","email":"l.axten@jths.co.uk","telephone":"01283 247813"},"canSponsorSkilledWorkerVisa":false,"canSponsorStudentVisa":false},{"id":"8fb9c897-cab0-4525-9f76-c2dd747bd3d5","name":"The Learning Institute South West","code":"L19","type":"scitt","ukprn":10057945,"isAccreditedProvider":false,"address":{"addressLine1":"Rm B304, Beacon Place, Station Approach","town":"Saint Austell","county":"Cornwall","postcode":"PL26 8LG"},"location":{"latitude":50.4186219,"longitude":-4.8290619,"regionCode":"K"},"contact":{"website":"www.learninginstitute.co.uk","email":"itt@learninginstitute.co.uk","telephone":"01726891745"},"canSponsorSkilledWorkerVisa":false,"canSponsorStudentVisa":true},{"id":"115db722-10f4-4471-807d-82d5ebf533ae","name":"The Manchester Metropolitan University","code":"M40","type":"university","urn":133844,"ukprn":10004180,"isAccreditedProvider":true,"accreditedProviderId":1522,"address":{"addressLine1":"Brooks Building","addressLine2":"Bonsall Street","town":"Manchester","county":"Greater Manchester","postcode":"M15 6GX"},"location":{"latitude":53.4667584,"longitude":-2.2463524,"regionCode":"B"},"contact":{"website":"https://www.mmu.ac.uk/education/pgce/","email":"courses@mmu.ac.uk","telephone":"0161 247 6969"},"canSponsorSkilledWorkerVisa":false,"canSponsorStudentVisa":true},{"id":"fac82a51-fdba-423a-8f92-94793218d061","name":"The National Mathematics and Physics SCITT","code":"2H8","type":"scitt","ukprn":10058686,"isAccreditedProvider":true,"accreditedProviderId":5718,"address":{"addressLine1":"Marlow Road","town":"High Wycombe","county":"Buckinghamshire","postcode":"HP11 1TB"},"location":{"latitude":51.6184981,"longitude":-0.7649843,"regionCode":"J"},"contact":{"website":"http://www.nmapscitt.org.uk/","email":"enquiries@nmapscitt.org.uk","telephone":"01494 897330"},"canSponsorSkilledWorkerVisa":false,"canSponsorStudentVisa":false},{"id":"6db395a3-229d-46c1-9a07-29bf87389b67","name":"The National Modern Languages SCITT","code":"2F1","type":"scitt","ukprn":10060171,"isAccreditedProvider":true,"accreditedProviderId":5716,"address":{"addressLine1":"The National Modern Languages SCITT, Silverdale School (Lead School)","addressLine2":"Bents Crescent","town":"Sheffield","county":"South Yorkshire","postcode":"S11 9QH"},"location":{"latitude":53.35194449999999,"longitude":-1.5280919,"regionCode":"D"},"contact":{"website":"http://www.nationalmodernlanguages.com/","email":"enquiries@nationalmodernlanguages.com","telephone":"0114 2357980"},"canSponsorSkilledWorkerVisa":false,"canSponsorStudentVisa":false},{"id":"8900ef31-a7f5-4d9a-9733-bf0e5fd4b57c","name":"The OAKS (Ormiston and Keele SCITT)","code":"24P","type":"scitt","ukprn":10055541,"isAccreditedProvider":false,"address":{"addressLine1":"Room CBA0.040","addressLine2":"Chancellor's Building","town":"Newcastle","county":"Staffordshire","postcode":"ST5 5BG"},"location":{"latitude":53.0032617,"longitude":-2.2735806,"regionCode":"F"},"contact":{"website":"https://theoaks.org.uk/","email":"k.a.pickin@keele.ac.uk","telephone":"01782733130"},"canSponsorSkilledWorkerVisa":false,"canSponsorStudentVisa":false},{"id":"2d0a4197-a64f-47f5-be9c-9f15d94221f3","name":"The Open University","code":"O11","type":"university","isAccreditedProvider":true,"address":{"addressLine1":"PO Box 197","town":"Milton Keynes","postcode":"MK7 6BJ"},"location":{"regionCode":"J"},"contact":{"website":"www.open.ac.uk"}},{"id":"a942fbc9-4c5d-449f-bdad-38d1d19f9535","name":"The Royal Borough of Windsor and Maidenhead SCITT","code":"1WM","type":"scitt","ukprn":10005550,"isAccreditedProvider":true,"accreditedProviderId":5629,"address":{"addressLine1":"Town Hall","addressLine2":"St Ives Road","town":"Maidenhead","postcode":"SL6 1RF"},"location":{"latitude":51.5219506,"longitude":-0.7186623999999999,"regionCode":"J"},"canSponsorSkilledWorkerVisa":false,"canSponsorStudentVisa":false},{"id":"38e49568-68d1-454e-aa56-96066648312f","name":"The Royal Central School of Speech and Drama","code":"C35","type":"university","isAccreditedProvider":false,"address":{"addressLine1":"Central School of Speech and Drama","addressLine2":"64 Eton Avenue","town":"London","postcode":"NW3 3HY"},"location":{"latitude":51.5443253,"longitude":-0.1742048,"regionCode":"H"},"contact":{"website":"www.cssd.ac.uk"}},{"id":"48de38ca-0f48-4bc0-98dc-3f7ba39ab183","name":"The Sheffield SCITT","code":"S97","type":"scitt","ukprn":10037587,"isAccreditedProvider":true,"accreditedProviderId":5647,"address":{"addressLine1":"Notre Dame High School","addressLine2":"Fulwood Road","town":"Sheffield","county":"South Yorkshire","postcode":"S10 3BT"},"location":{"latitude":53.3727095,"longitude":-1.5171309,"regionCode":"D"},"contact":{"website":"https://www.sheffieldscitt.org.uk","email":"admin@sheffieldscitt.org.uk","telephone":"01142302536"},"canSponsorSkilledWorkerVisa":false,"canSponsorStudentVisa":false},{"id":"f3d80fd9-843f-49ef-a515-9c0e9776e4de","name":"The South Downs SCITT","code":"2AZ","type":"scitt","ukprn":10045651,"isAccreditedProvider":false,"address":{"addressLine1":"Durrington High School","addressLine2":"The Boulevard","town":"Worthing","county":"West Sussex","postcode":"BN13 1JX"},"location":{"latitude":50.8277265,"longitude":-0.4096457,"regionCode":"J"},"contact":{"website":"http://thesouthdownsscitt.co.uk/programmes/","email":"info@southdownsscitt.co.uk","telephone":"01903 705671"},"canSponsorSkilledWorkerVisa":false,"canSponsorStudentVisa":false},{"id":"ef1107ef-715d-45f7-94be-db1808b57db7","name":"The Tommy Flowers SCITT Milton Keynes","code":"1YK","type":"scitt","ukprn":10058516,"isAccreditedProvider":true,"accreditedProviderId":5645,"address":{"addressLine1":"St. Paul's Catholic School","addressLine2":"Phoenix Drive","addressLine3":"Leadenhall","town":"Milton Keynes","county":"Buckinghamshire","postcode":"MK6 5EN"},"location":{"latitude":52.0258535,"longitude":-0.7536358999999999,"regionCode":"J"},"contact":{"website":"http://www.tommyflowersscitt.co.uk","email":"TFSCITTsecondary@denbigh.net","telephone":"01908 669735 ext. 353"},"canSponsorSkilledWorkerVisa":false,"canSponsorStudentVisa":false},{"id":"0510a539-5027-425b-9586-5b1aebbca2eb","name":"Three Counties Alliance SCITT","code":"T29","type":"scitt","ukprn":10034549,"isAccreditedProvider":false,"address":{"addressLine1":"Minsthorpe Community College","addressLine2":"Minsthorpe Lane,","town":"Pontefract","county":"West Yorkshire","postcode":"WF9 2UJ"},"location":{"latitude":53.6018166,"longitude":-1.292655,"regionCode":"D"},"contact":{"website":"http://ytcascitt.co.uk/","email":"ytca@minsthorpe.cc","telephone":"01977657604"},"canSponsorSkilledWorkerVisa":false,"canSponsorStudentVisa":false},{"id":"717fa657-c3fc-446c-bf21-9db49fcf54c8","name":"Titan Partnership Ltd","code":"T30","type":"scitt","ukprn":10039377,"isAccreditedProvider":true,"address":{"addressLine1":"Titan Partnership","addressLine2":"75 Harborne Road","town":"Birmingham","county":"West Midlands","postcode":"B15 3DH"},"location":{"latitude":52.4709662,"longitude":-1.9243191,"regionCode":"F"},"contact":{"website":"www.titanteachertraining.co.uk","email":"sean.bates@titan.org.uk","telephone":"0121 607 1930"},"canSponsorSkilledWorkerVisa":false,"canSponsorStudentVisa":false},{"id":"ce0759b8-e22d-42f6-9256-b85b2aa083ce","name":"TKAT SCITT","code":"K13","type":"scitt","ukprn":10052833,"isAccreditedProvider":true,"address":{"addressLine1":"The Kemnal Academies Trust (TKAT)","addressLine2":"The Atkins Centre,","town":"Sidcup","county":"Sevenoaks Way, Sidcup, Kent","postcode":"DA14 5AA"},"location":{"latitude":51.4120619,"longitude":0.1112203,"regionCode":"H"},"contact":{"website":"http://www.scitt.tkat.org","email":"scitt@tkat.org","telephone":"020 3740 1808"},"canSponsorSkilledWorkerVisa":false,"canSponsorStudentVisa":false},{"id":"7cd48570-10e1-4b45-9da3-d59368cf0be5","name":"Two Mile Ash ITT Partnership","code":"T89","type":"scitt","ukprn":10059102,"isAccreditedProvider":false,"address":{"addressLine1":"Two Mile Ash ITT Partnership, Fairfields Primary School","addressLine2":"Apollo Avenue, Fairfields","town":"Milton Keynes","county":"Buckinghamshire","postcode":"MK11 4BA"},"location":{"latitude":52.0423076,"longitude":-0.8326865,"regionCode":"J"},"contact":{"website":"www.mkitt.co.uk","email":"info@mkitt.co.uk","telephone":"01908 533284"},"canSponsorSkilledWorkerVisa":false,"canSponsorStudentVisa":false},{"id":"adb178d8-8b7b-400d-abcc-7a63f5160b03","name":"UCL, University College London","code":"U80","type":"university","ukprn":10007784,"isAccreditedProvider":true,"accreditedProviderId":1584,"address":{"addressLine1":"University College London","addressLine2":"Gower Street","town":"London","postcode":"WC1E 6BT"},"location":{"latitude":51.5235694,"longitude":-0.1324236,"regionCode":"H"},"contact":{"website":"https://www.ucl.ac.uk/ioe/courses/teacher-training","email":"teaching-admissions@ucl.ac.uk","telephone":"0208 059 0939"},"canSponsorSkilledWorkerVisa":false,"canSponsorStudentVisa":true},{"id":"54459a0a-46ad-4504-aec7-e99acd6907b3","name":"United Teaching National SCITT","code":"1A9","type":"scitt","urn":130912,"ukprn":10037395,"isAccreditedProvider":true,"accreditedProviderId":5674,"address":{"addressLine1":"Paddington Academy","addressLine2":"50 Marylands Road","town":"London","postcode":"W9 2DR"},"location":{"latitude":51.5253504,"longitude":-0.1921475,"regionCode":"H"},"contact":{"website":"http://www.unitedteaching.org.uk","email":"train@unitedteaching.org.uk","telephone":"01832 864439"},"canSponsorSkilledWorkerVisa":false,"canSponsorStudentVisa":false},{"id":"94b6df19-75cd-4b4c-a31e-961ad63b3d31","name":"University Campus Oldham","code":"KG8","type":"university","ukprn":10006770,"isAccreditedProvider":true,"address":{"addressLine1":"Oldham Business Centre, University Way","town":"Oldham","county":"Lancashire","postcode":"OL1 1BB"},"location":{"latitude":53.538425,"longitude":-2.114093,"regionCode":"B"},"contact":{"website":"http://www.uco.oldham.ac.uk/","email":"jill.taylor@oldham.ac.uk","telephone":"0161 344 8817"},"canSponsorSkilledWorkerVisa":false,"canSponsorStudentVisa":false},{"id":"2f8b18a3-c1cd-4555-bc1e-a398ff638d46","name":"University Centre Colchester at Colchester Institute","code":"C75","type":"university","ukprn":10001535,"isAccreditedProvider":true,"address":{"addressLine1":"Sheepen Road","town":"Colchester","county":"Essex","postcode":"CO3 3LL"},"location":{"latitude":51.8935171,"longitude":0.8885744,"regionCode":"G"},"contact":{"website":"https://www.colchester.ac.uk/ucc","email":"uccadmissions@colchester.ac.uk","telephone":"01206 712000"}},{"id":"54e2b6cb-9cd2-42b6-b8ea-f0d8b526e495","name":"University Centre Farnborough","code":"2F3","type":"scitt","ukprn":10002412,"isAccreditedProvider":true,"accreditedProviderId":5725,"address":{"addressLine1":"Boundary Road","town":"Farnborough","county":"Hampshire","postcode":"GU14 6SB"},"location":{"latitude":51.2855549,"longitude":-0.7517653,"regionCode":"J"},"contact":{"website":"https://www.farn-ct.ac.uk/","email":"ucfteachertraining@farn-ct.ac.uk","telephone":"01252405555"}},{"id":"db8e4f97-8ec0-411a-bd7d-5c69164c4a3b","name":"University College Birmingham","code":"B35","type":"university","urn":133785,"ukprn":10000712,"isAccreditedProvider":false,"address":{"addressLine1":"University College Birmingham","addressLine2":"Summer Row","town":"Birmingham","county":"West Midlands","postcode":"B3 1JB"},"location":{"latitude":52.4818399,"longitude":-1.9059388,"regionCode":"F"},"contact":{"website":"http://www.ucb.ac.uk","email":"pg@ucb.ac.uk","telephone":"0121 604 1040"},"canSponsorSkilledWorkerVisa":false,"canSponsorStudentVisa":true},{"id":"90dd24a5-8a88-4237-a2bd-36adf33e71f2","name":"University of Aberdeen","code":"A20","type":"university","isAccreditedProvider":false,"address":{"town":"Aberdeen"},"location":{"regionCode":"S"}},{"id":"72361114-227f-4c37-aa3b-2fcec22b1ea9","name":"University of Bath","code":"B16","type":"university","urn":133789,"ukprn":10007850,"isAccreditedProvider":true,"address":{"addressLine1":"Department of Education","addressLine2":"Claverton Down","town":"Bath","county":"Somerset","postcode":"BA2 7AY"},"location":{"latitude":51.3793273,"longitude":-2.3271592,"regionCode":"K"},"contact":{"website":"www.bath.ac.uk/education/pgce"}},{"id":"5e8ffe7d-cf57-4c24-b177-d91e64a0b84d","name":"University of Bedfordshire","code":"B22","type":"university","ukprn":10007152,"isAccreditedProvider":true,"accreditedProviderId":1582,"address":{"addressLine1":"University of Bedfordshire","addressLine2":"Polhill Avenue","town":"Bedford","county":"Bedfordshire","postcode":"MK41 9EA"},"location":{"latitude":52.1413567,"longitude":-0.4423233,"regionCode":"G"},"contact":{"website":"http://www.beds.ac.uk","email":"pgce.admissions@beds.ac.uk","telephone":"01582 743500"},"canSponsorSkilledWorkerVisa":false,"canSponsorStudentVisa":false},{"id":"4196f9a0-c054-4c39-8926-388f581f8a24","name":"University of Birmingham","code":"B32","type":"university","urn":133784,"ukprn":10006840,"isAccreditedProvider":true,"accreditedProviderId":1537,"address":{"addressLine1":"Admissions","addressLine2":"The University of Birmingham","town":"Birmingham","county":"Birmingham","postcode":"B15 2TT"},"location":{"latitude":52.4532671,"longitude":-1.9278957,"regionCode":"F"},"contact":{"website":"https://www.birmingham.ac.uk/schools/education/teacher-education/index.aspx","email":"iteadmissions@contacts.bham.ac.uk","telephone":"0121 414 4883"},"canSponsorSkilledWorkerVisa":false,"canSponsorStudentVisa":true},{"id":"1b2d3c2c-24b9-4de9-b4ac-7829508afd78","name":"University of Bolton","code":"8N5","type":"university","urn":133794,"ukprn":10006841,"isAccreditedProvider":false,"address":{"addressLine1":"Senate House, Deane Road","town":"Bolton","county":"Lancashire","postcode":"BL3 5AB"},"location":{"latitude":53.5735108,"longitude":-2.4362381,"regionCode":"B"},"contact":{"website":"https://www.bolton.ac.uk/subject-areas/education-and-teacher-training/","email":"J.Hornby2@bolton.ac.uk","telephone":"1204903342"},"canSponsorSkilledWorkerVisa":false,"canSponsorStudentVisa":true},{"id":"a6036403-f726-461a-befd-62536bc7128e","name":"University of Brighton","code":"B72","type":"university","urn":133796,"ukprn":10000886,"isAccreditedProvider":true,"accreditedProviderId":1538,"address":{"addressLine1":"Mithras House","addressLine2":"Lewes Road","town":"Brighton","postcode":"BN2 4AT"},"location":{"latitude":50.8424536,"longitude":-0.1191696,"regionCode":"J"},"contact":{"website":"https://www.brighton.ac.uk","email":"enquiries@brighton.ac.uk","telephone":"01273 644644"},"canSponsorSkilledWorkerVisa":false,"canSponsorStudentVisa":true},{"id":"d3fb1dd8-5e61-4a4b-a4f5-9203dc11f9ca","name":"University of Bristol","code":"B78","type":"university","ukprn":10007786,"isAccreditedProvider":true,"accreditedProviderId":1539,"address":{"addressLine1":"University of Bristol","addressLine2":"School of Education, 35 Berkeley Square","town":"Bristol","postcode":"BS8 1JA"},"location":{"latitude":51.455075,"longitude":-2.604749,"regionCode":"K"},"contact":{"website":"http://www.bristol.ac.uk/education/students/ite/","email":"pgce-admissions@bristol.ac.uk","telephone":"0117 3314492"},"canSponsorSkilledWorkerVisa":false,"canSponsorStudentVisa":true},{"id":"9e43eb53-24bd-4000-af97-a0b45fb0fa63","name":"University of Buckingham","code":"2Z3","type":"university","ukprn":10007787,"isAccreditedProvider":true,"accreditedProviderId":1581,"address":{"addressLine1":"University of Buckingham","addressLine2":"Hunter Street","town":"Buckingham","county":"Buckinghamshire","postcode":"MK18 1EG"},"location":{"latitude":51.9959983,"longitude":-0.9918386,"regionCode":"J"},"contact":{"website":"https://www.buckingham.ac.uk/study-education/","email":"education@buckingham.ac.uk","telephone":"01280 820222"},"canSponsorSkilledWorkerVisa":false,"canSponsorStudentVisa":false},{"id":"acd01f27-0f3b-4b50-a781-4f2eff8e3375","name":"University of Buckingham, Faculty of Education","code":"7O7","type":"university","ukprn":10007787,"isAccreditedProvider":true,"address":{"town":"Buckingham","county":"Buckinghamshire","postcode":"MK18 1EG"},"location":{"latitude":51.9959983,"longitude":-0.9918386,"regionCode":"G"},"contact":{"email":"apprenticeships@buckingham.ac.uk","telephone":"01280 820222"}},{"id":"9b0b8684-9c32-40ed-830a-2c10dc23a055","name":"University of Cambridge","code":"C05","type":"university","ukprn":10007788,"isAccreditedProvider":true,"accreditedProviderId":1540,"address":{"addressLine1":"Faculty of Education","addressLine2":"184 Hills Road","town":"Cambridge","county":"Cambridgeshire","postcode":"CB2 8PQ"},"location":{"latitude":52.1865788,"longitude":0.1372583,"regionCode":"G"},"contact":{"website":"http://www.educ.cam.ac.uk/pgce/","email":"pgce-admissions@educ.cam.ac.uk","telephone":"01223 767674"},"canSponsorSkilledWorkerVisa":false,"canSponsorStudentVisa":true},{"id":"1dce94e1-3801-4d90-b8eb-16f0a77725fe","name":"University of Central Lancashire","code":"C30","type":"university","urn":133869,"ukprn":10007141,"isAccreditedProvider":true,"address":{"addressLine1":"Fylde Road","town":"Preston","postcode":"PR1 2HE"},"location":{"latitude":53.7613382,"longitude":-2.707384,"regionCode":"B"},"contact":{"website":"https://www.uclan.ac.uk/courses/pi-pgce-education-training.php","email":"abrzeski@uclan.ac.uk","telephone":"01772 892714"}},{"id":"0e4bc170-93cd-4a46-9a82-905dab36c47f","name":"University of Chester","code":"C55","type":"university","ukprn":10007848,"isAccreditedProvider":true,"accreditedProviderId":1507,"address":{"addressLine1":"Riverside Campus","addressLine2":"Castle Drive","town":"Chester","county":"Cheshire","postcode":"CH1 1SL"},"location":{"latitude":53.1857431,"longitude":-2.8912315,"regionCode":"B"},"contact":{"website":"https://www1.chester.ac.uk/education-and-childrens-services/postgraduate-courses","email":"admissions@chester.ac.uk","telephone":"01244511000"},"canSponsorSkilledWorkerVisa":false,"canSponsorStudentVisa":true},{"id":"e78a9514-cd0f-4d2e-a53e-c415a16a2dd9","name":"University of Chichester","code":"C58","type":"university","urn":133868,"ukprn":10007137,"isAccreditedProvider":true,"accreditedProviderId":1533,"address":{"addressLine1":"Bognor Regis Campus","addressLine2":"Upper Bognor Road","town":"Bognor Regis","county":"West Sussex","postcode":"PO21 1HR"},"location":{"latitude":50.78856460000001,"longitude":-0.6652967,"regionCode":"J"},"contact":{"website":"https://www.chi.ac.uk/teaching/","email":"admissions@chi.ac.uk","telephone":"01243 816002"},"canSponsorSkilledWorkerVisa":false,"canSponsorStudentVisa":true},{"id":"f12188c7-0ee1-446f-823c-495e76f5fee4","name":"University of Cumbria","code":"C99","type":"university","ukprn":10007842,"isAccreditedProvider":false,"address":{"addressLine1":"Admissions Office","addressLine2":"(Lancaster Carlisle London)","addressLine3":"Fusehill Street","town":"Carlisle","county":"Cumbria","postcode":"CA1 2HH"},"location":{"latitude":54.8911625,"longitude":-2.9214168,"regionCode":"B"},"contact":{"website":"http://www.cumbria.ac.uk","email":"pgadmissions@cumbria.ac.uk","telephone":"0845 606 1144"},"canSponsorSkilledWorkerVisa":false,"canSponsorStudentVisa":true},{"id":"7b80796e-0b0b-449a-914c-455973ed8edd","name":"University of Derby","code":"D39","type":"university","urn":133811,"ukprn":10007851,"isAccreditedProvider":true,"accreditedProviderId":1542,"address":{"addressLine1":"University of Derby","addressLine2":"Kedleston Road","town":"Derby","county":"Derbyshire","postcode":"DE22 1GB"},"location":{"latitude":52.9384552,"longitude":-1.4966814,"regionCode":"E"},"contact":{"website":"www.derby.ac.uk","email":"admissionsadvisor1@derby.ac.uk","telephone":"01332 591167"},"canSponsorSkilledWorkerVisa":false,"canSponsorStudentVisa":true},{"id":"6d3e9362-afb7-471f-a849-eafa94bbaf94","name":"University of Dundee","code":"D65","type":"university","isAccreditedProvider":false,"address":{"addressLine1":"University of Dundee","addressLine2":"Nethergate","town":"Dundee","postcode":"DD1 4HN"},"location":{"latitude":56.45734539999999,"longitude":-2.9782687,"regionCode":"S"},"contact":{"website":"www.dundee.ac.uk"}},{"id":"685ef4d1-5da5-4640-ac8d-52fe24fe162e","name":"University of East Anglia","code":"E14","type":"university","urn":133853,"ukprn":10007789,"isAccreditedProvider":false,"address":{"addressLine1":"University of East Anglia","addressLine2":"Norwich Research Park","town":"Norwich","county":"Norfolk","postcode":"NR4 7TJ"},"location":{"latitude":52.6223694,"longitude":1.241391,"regionCode":"G"},"contact":{"website":"https://www.uea.ac.uk/web/about/school-of-education-and-lifelong-learning/initial-teacher-education","email":"edu.pgce.admiss@uea.ac.uk","telephone":"01603 592855"},"canSponsorSkilledWorkerVisa":false,"canSponsorStudentVisa":true},{"id":"0614171d-c7ac-406b-9c79-63eeee3454b7","name":"University of East London","code":"E28","type":"university","ukprn":10007144,"isAccreditedProvider":true,"accreditedProviderId":1545,"address":{"addressLine1":"School of Education and Communities","addressLine2":"Water Lane","addressLine3":"Stratford","town":"London","postcode":"E15 4LZ"},"location":{"latitude":51.5434379,"longitude":0.0098957,"regionCode":"H"},"contact":{"website":"https://www.uel.ac.uk/teacher-training","email":"study@uel.ac.uk","telephone":"020 8223 3333"},"canSponsorSkilledWorkerVisa":false,"canSponsorStudentVisa":true},{"id":"d0231598-8c81-4e9e-ab1e-f0cd90cc3019","name":"University of Edinburgh","code":"E56","type":"university","isAccreditedProvider":true,"address":{"addressLine1":"College of Humanities & Social Sci","addressLine2":"David Hume Tower","addressLine3":"George Square","town":"Edinburgh","postcode":"EH8 9JX"},"location":{"latitude":55.9432325,"longitude":-3.1866341,"regionCode":"S"},"contact":{"website":"www.education.ed.ac.uk"}},{"id":"6137ed05-b678-4b02-9436-8c16edf1f6ee","name":"University of Exeter","code":"E84","type":"university","ukprn":10007792,"isAccreditedProvider":true,"accreditedProviderId":1546,"address":{"addressLine1":"Admissions, University of Exeter","addressLine2":"Innovation Centre","addressLine3":"Rennes Drive","town":"Exeter","county":"Devon","postcode":"EX4 4RN"},"location":{"latitude":50.7381454,"longitude":-3.5306385,"regionCode":"K"},"contact":{"website":"https://www.exeter.ac.uk/study/teachertraining/","email":"PGCE-admissions@exeter.ac.uk","telephone":"0300 555 6060"},"canSponsorSkilledWorkerVisa":false,"canSponsorStudentVisa":true},{"id":"80446f8e-bfe1-486b-8568-3b6827c4e195","name":"University of Glasgow","code":"G28","type":"university","isAccreditedProvider":false,"address":{"addressLine1":"School of Education","addressLine2":"St Andrew's Building","addressLine3":"Eldon Street","town":"Glasgow","postcode":"G3 6NH"},"location":{"latitude":55.87147659999999,"longitude":-4.2794398,"regionCode":"S"},"contact":{"website":"www.glasgow.ac.uk/education"}},{"id":"7a8f061a-df0d-4320-a2af-5b8cfd9a93eb","name":"University of Gloucestershire","code":"G50","type":"university","ukprn":10007145,"isAccreditedProvider":true,"accreditedProviderId":1547,"address":{"addressLine1":"University of Gloucestershire","addressLine2":"Pittville Campus","town":"Cheltenham","county":"Gloucestershire","postcode":"GL52 3JG"},"location":{"latitude":51.9137379,"longitude":-2.0636668,"regionCode":"K"},"contact":{"website":"http://www.glos.ac.uk","email":"teachertraining@glos.ac.uk","telephone":"01242 714510"},"canSponsorSkilledWorkerVisa":false,"canSponsorStudentVisa":false},{"id":"6f18acea-b1ee-4106-a158-bb36ccf0b1a1","name":"University of Greenwich","code":"G70","type":"university","ukprn":10007146,"isAccreditedProvider":false,"address":{"addressLine1":"Avery Hill Campus","addressLine2":"Southwood Site","addressLine3":"Avery Hill Road","town":"London","county":"London","postcode":"SE9 2UG"},"location":{"latitude":51.44618260000001,"longitude":0.0809602,"regionCode":"H"},"contact":{"website":"http://www.gre.ac.uk","email":"courseinfo@gre.ac.uk","telephone":"020 8331 9000"},"canSponsorSkilledWorkerVisa":false,"canSponsorStudentVisa":false},{"id":"ce6a8799-e252-4665-8319-add1da57011b","name":"University of Hertfordshire","code":"H36","type":"university","urn":133783,"ukprn":10007147,"isAccreditedProvider":true,"accreditedProviderId":1549,"address":{"addressLine1":"University of Hertfordshire","town":"Hatfield","county":"Hertfordshire","postcode":"AL10 9AB"},"location":{"latitude":51.7528768,"longitude":-0.2422021,"regionCode":"G"},"contact":{"website":"https://go.herts.ac.uk/teachertraining","email":"admcom@herts.ac.uk","telephone":"01707 284800"},"canSponsorSkilledWorkerVisa":false,"canSponsorStudentVisa":false},{"id":"2fcdc527-f475-4919-b6c5-1a2dea3011b1","name":"University of Huddersfield","code":"H60","type":"university","urn":133822,"ukprn":10007148,"isAccreditedProvider":true,"accreditedProviderId":1550,"address":{"addressLine1":"Queensgate","town":"Huddersfield","county":"Kirklees","postcode":"HD1 3DH"},"location":{"latitude":53.6436631,"longitude":-1.7787247,"regionCode":"D"},"contact":{"website":"https://www.hud.ac.uk/the-university/teacher-training/","email":"sepd@hud.ac.uk","telephone":"01484 478249"},"canSponsorSkilledWorkerVisa":false,"canSponsorStudentVisa":false},{"id":"afd226fb-4f6b-4980-a0f9-71e021d0448c","name":"University of Hull","code":"H72","type":"university","ukprn":10007149,"isAccreditedProvider":false,"address":{"addressLine1":"Admissions & Applicant Services","addressLine2":"The University of Hull, Venn Building","addressLine3":"Cottingham Road","town":"Hull","county":"Yorkshire","postcode":"HU6 7RX"},"location":{"latitude":53.7717776,"longitude":-0.3663839,"regionCode":"D"},"contact":{"website":"http://www.hull.ac.uk","email":"admissions@hull.ac.uk","telephone":"01482 466100"},"canSponsorSkilledWorkerVisa":false,"canSponsorStudentVisa":true},{"id":"7cb63cd3-a000-4c62-a498-9ad02975ae41","name":"University of Leicester","code":"L34","type":"university","ukprn":10007796,"isAccreditedProvider":true,"accreditedProviderId":1553,"address":{"addressLine1":"21 University Road","town":"Leicester","county":"United Kingdom","postcode":"LE1 7RF"},"location":{"latitude":52.6268971,"longitude":-1.1222484,"regionCode":"E"},"contact":{"website":"http://www.le.ac.uk/pgce","email":"EdEnquiries@le.ac.uk","telephone":"0116 252 3676"},"canSponsorSkilledWorkerVisa":false,"canSponsorStudentVisa":true},{"id":"9b56ec70-80c4-4e43-a1d5-d95f44967631","name":"University of Manchester","code":"M20","type":"university","ukprn":10007798,"isAccreditedProvider":true,"accreditedProviderId":1554,"address":{"addressLine1":"Manchester Institute of Education","addressLine2":"Oxford Road","town":"Manchester","county":"Greater Manchester","postcode":"M13 9PL"},"location":{"latitude":53.4669099,"longitude":-2.2335795,"regionCode":"B"},"contact":{"website":"https://www.seed.manchester.ac.uk/education/study/pgce/","email":"pgce@manchester.ac.uk","telephone":"0161 543 4028"},"canSponsorSkilledWorkerVisa":false,"canSponsorStudentVisa":true},{"id":"cfc0f82d-a3b6-4af4-9754-a5124ec1ef3e","name":"University of Newcastle Upon Tyne","code":"N21","type":"university","urn":133852,"ukprn":10007799,"isAccreditedProvider":true,"accreditedProviderId":1577,"address":{"addressLine1":"Admissions","addressLine2":"Level 3","town":"Newcastle upon Tyne","county":"Newcastle upon Tyne","postcode":"NE1 7RU"},"location":{"latitude":54.98032,"longitude":-1.6157133,"regionCode":"A"},"contact":{"website":"https://www.ncl.ac.uk/ecls/study-with-us/postgraduate-taught/teacher-training/","email":"pgce-education@ncl.ac.uk","telephone":"0191 208 6017"},"canSponsorSkilledWorkerVisa":false,"canSponsorStudentVisa":true},{"id":"5bad2a22-d251-4324-812b-663df2842e7b","name":"University of Northampton","code":"N38","type":"university","ukprn":10007138,"isAccreditedProvider":true,"accreditedProviderId":1534,"address":{"addressLine1":"Waterside Campus","addressLine2":"University Drive","town":"Northampton","county":"Northamptonshire","postcode":"NN1 5PH"},"location":{"latitude":52.2315911,"longitude":-0.8901935999999999,"regionCode":"E"},"contact":{"website":"https://www.northampton.ac.uk/study/courses-by-subject/teacher-training/","email":"study@northampton.ac.uk","telephone":"03003032772"},"canSponsorSkilledWorkerVisa":false,"canSponsorStudentVisa":false},{"id":"a8aecd09-873f-4d33-8604-f7c21a72b477","name":"University of Northumbria at Newcastle","code":"N77","type":"university","ukprn":10001282,"isAccreditedProvider":true,"accreditedProviderId":1572,"address":{"addressLine1":"Pandon Building","addressLine2":"Northumbria University","town":"Newcastle","county":"Tyne and Wear","postcode":"NE2 1XE"},"location":{"latitude":54.9776873,"longitude":-1.6045832,"regionCode":"A"},"contact":{"website":"http://www.northumbria.ac.uk","email":"bc.applicantservices@northumbria.ac.uk","telephone":"0191 406 0901"},"canSponsorSkilledWorkerVisa":false,"canSponsorStudentVisa":true},{"id":"94e0f81c-2ebc-4d60-83d8-4759f07510b0","name":"University of Nottingham","code":"N84","type":"university","ukprn":10007154,"isAccreditedProvider":true,"accreditedProviderId":1555,"address":{"addressLine1":"The School of Education","addressLine2":"Jubilee Campus","town":"Nottingham","county":"Nottinghamshire","postcode":"NG8 1BB"},"location":{"latitude":52.9530216,"longitude":-1.187123,"regionCode":"E"},"contact":{"website":"https://www.nottingham.ac.uk/education/study/teacher-training/index.aspx","email":"tt-educationadmin@exmail.nottingham.ac.uk","telephone":"0115 951 5151"},"canSponsorSkilledWorkerVisa":false,"canSponsorStudentVisa":true},{"id":"289dca3d-242b-41a1-9a41-b91899505e12","name":"University of Plymouth","code":"P60","type":"university","urn":133865,"ukprn":10007801,"isAccreditedProvider":false,"address":{"addressLine1":"Nancy Astor Building, 3rd Floor","addressLine2":"Drake Circus","town":"Plymouth","county":"Devon","postcode":"PL4 8AA"},"location":{"latitude":50.3754517,"longitude":-4.1379109,"regionCode":"K"},"contact":{"website":"http://www.plymouth.ac.uk","email":"admissions@plymouth.ac.uk","telephone":"01752 585858"},"canSponsorSkilledWorkerVisa":false,"canSponsorStudentVisa":true},{"id":"fc957547-c272-4d68-ad0b-5e3b5bbed33f","name":"University of Portsmouth","code":"P80","type":"university","ukprn":10007155,"isAccreditedProvider":true,"accreditedProviderId":1558,"address":{"addressLine1":"University of Portsmouth","addressLine2":"St George's Building, 141 High Street,","town":"Portsmouth","county":"Hampshire","postcode":"PO1 2HY"},"location":{"latitude":50.7924941,"longitude":-1.1000225,"regionCode":"J"},"contact":{"website":"https://www.port.ac.uk/study/masters-and-postgraduate-taught/teacher-training","email":"admissions@port.ac.uk","telephone":"023 9284 5566"},"canSponsorSkilledWorkerVisa":false,"canSponsorStudentVisa":true},{"id":"2e21e296-1d8d-465d-9082-1784cc4055f6","name":"University of Reading","code":"R12","type":"university","ukprn":10007802,"isAccreditedProvider":true,"accreditedProviderId":1559,"address":{"addressLine1":"Admissions Office","addressLine2":"Miller Building,","addressLine3":"Pepper Lane, Whiteknights","town":"Reading","county":"Berkshire","postcode":"RG6 6EE"},"location":{"latitude":51.4394287,"longitude":-0.9469611000000001,"regionCode":"J"},"contact":{"website":"http://www.reading.ac.uk/education","email":"teachertraining@reading.ac.uk","telephone":"0118 378 5289"},"canSponsorSkilledWorkerVisa":false,"canSponsorStudentVisa":true},{"id":"50263e0c-587b-43dd-8d0e-5be6ba307324","name":"University of Sheffield","code":"S18","type":"university","ukprn":10007157,"isAccreditedProvider":true,"accreditedProviderId":1560,"address":{"addressLine1":"The School of Education","addressLine2":"The University of Sheffield","addressLine3":"Western Bank","town":"Sheffield","postcode":"S10 2TN"},"location":{"latitude":53.3813634,"longitude":-1.4885299,"regionCode":"D"},"contact":{"website":"https://www.sheffield.ac.uk/education/pgde","email":"education-admissions@sheffield.ac.uk","telephone":"0114 222 8177"},"canSponsorSkilledWorkerVisa":false,"canSponsorStudentVisa":true},{"id":"b587faca-d752-4742-929f-ccaf37a552f8","name":"University of South Wales (formerly University of Wales, Newport)","code":"N37","type":"university","isAccreditedProvider":false,"address":{"addressLine1":"Caerleon Campus","addressLine2":"Lodge Road","addressLine3":"Caerleon","town":"Newport","postcode":"NP18 3QT"},"location":{"latitude":51.6165166,"longitude":-2.9619246,"regionCode":"W"},"contact":{"website":"www.newport.ac.uk"}},{"id":"b2da9a32-d7a2-456e-991f-3492d7893974","name":"University of Southampton","code":"S27","type":"university","urn":133879,"ukprn":10007158,"isAccreditedProvider":true,"accreditedProviderId":1561,"address":{"addressLine1":"Southampton Education School","addressLine2":"Highfield","town":"Southampton","county":"Hampshire","postcode":"SO17 1BJ"},"location":{"latitude":50.9340991,"longitude":-1.3957143,"regionCode":"J"},"contact":{"website":"https://www.southampton.ac.uk/courses/secondary-pgce","email":"ITTAdmissions@soton.ac.uk","telephone":"023 8059 4732"},"canSponsorSkilledWorkerVisa":false,"canSponsorStudentVisa":false},{"id":"c220caa5-6716-4790-818a-487c8939b61b","name":"University of Strathclyde","code":"S78","type":"university","isAccreditedProvider":false,"address":{"addressLine1":"McCance Building","addressLine2":"16 Richmond Street","town":"Glasgow","postcode":"G1 1XQ"},"location":{"latitude":55.8611193,"longitude":-4.244828200000001,"regionCode":"S"},"contact":{"website":"http://www.strath.ac.uk/humanities/courses/postgraduatecourselist"}},{"id":"48edddd6-e548-47eb-9455-6f95a38ba62b","name":"University of Sunderland","code":"S84","type":"university","urn":133881,"ukprn":10007159,"isAccreditedProvider":true,"accreditedProviderId":1562,"address":{"addressLine1":"Edinburgh Building","addressLine2":"City Campus","addressLine3":"Chester Road","town":"Sunderland","postcode":"SR1 3SD"},"location":{"latitude":54.9044562,"longitude":-1.3909732,"regionCode":"A"},"contact":{"website":"http://www.sunderland.ac.uk","email":"student.helpline@sunderland.ac.uk","telephone":"0191 515 3000"},"canSponsorSkilledWorkerVisa":false,"canSponsorStudentVisa":true},{"id":"ae312328-a3b7-41f1-89b6-f9ac84112dbf","name":"University of Sussex","code":"S90","type":"university","ukprn":10007806,"isAccreditedProvider":false,"address":{"addressLine1":"Sussex School of Education","addressLine2":"Essex House","addressLine3":"Falmer","town":"Brighton","postcode":"BN1 9QQ"},"location":{"latitude":50.86802549999999,"longitude":-0.08948900000000001,"regionCode":"J"},"contact":{"website":"http://www.sussex.ac.uk/education/ite","email":"iteadmissions@sussex.ac.uk","telephone":"01273 873238"},"canSponsorSkilledWorkerVisa":false,"canSponsorStudentVisa":true},{"id":"1c6170fe-77a0-4109-bc33-bd3fa48d7457","name":"University of the Highlands and Islands","code":"H49","type":"university","isAccreditedProvider":true,"address":{"addressLine1":"Ness Walk","addressLine2":"Inverness","town":"Inverness","postcode":"IV3 5SQ"},"location":{"latitude":57.4694046,"longitude":-4.2302462,"regionCode":"S"},"contact":{"website":"www.uhi.ac.uk"}},{"id":"869ce436-dbf1-45fb-89ef-1e22822df5f8","name":"University of the West of England, Bristol","code":"B80","type":"university","urn":133798,"ukprn":10007164,"isAccreditedProvider":false,"address":{"addressLine1":"Bristol, University of the W/E","addressLine2":"Frenchay Campus","addressLine3":"Coldharbour Lane","town":"Bristol","postcode":"BS16 1QY"},"location":{"latitude":51.5010788,"longitude":-2.5474576,"regionCode":"K"},"contact":{"website":"http://www.uwe.ac.uk","email":"admissions@uwe.ac.uk","telephone":"0117 32 83333"},"canSponsorSkilledWorkerVisa":false,"canSponsorStudentVisa":true},{"id":"977eb07e-dbbd-419f-9d5c-4e41aee5f375","name":"University of the West of Scotland","code":"U40","type":"university","isAccreditedProvider":true,"address":{"addressLine1":"Paisley Campus","addressLine2":"Storie Street","town":"Paisley","county":"Renfrewshire","postcode":"PA1 2BE"},"location":{"latitude":55.843483,"longitude":-4.4299843,"regionCode":"S"},"contact":{"website":"www.uws.ac.uk/"}},{"id":"bc2d1667-b118-4324-9617-c66117b5067a","name":"University of Wales Trinity Saint David (UWTSD Swansea)","code":"S96","type":"university","isAccreditedProvider":false,"address":{"addressLine1":"Mount Pleasant Campus","addressLine2":"Swansea","town":"Swansea","postcode":"SA1 6ED"},"location":{"latitude":51.6246537,"longitude":-3.9494277,"regionCode":"W"},"contact":{"website":"www.uwtsd.ac.uk/"}},{"id":"248ac671-a5e2-4611-a0ac-6874d9e80a57","name":"University of Warwick","code":"W20","type":"university","ukprn":10007163,"isAccreditedProvider":true,"accreditedProviderId":1566,"address":{"addressLine1":"Westwood Campus","addressLine2":"University of Warwick","addressLine3":"Kirby Corner Road","town":"Coventry","postcode":"CV4 8EE"},"location":{"latitude":52.39519019999999,"longitude":-1.5732605,"regionCode":"F"},"contact":{"website":"http://www2.warwick.ac.uk/fac/soc/cte/thinking-about-being-a-teacher/","email":"cte.admissions@warwick.ac.uk","telephone":"024 761 50269"},"canSponsorSkilledWorkerVisa":false,"canSponsorStudentVisa":true},{"id":"ed1d6fff-b087-4dba-8668-29603d1894ae","name":"University of Winchester","code":"W76","type":"university","urn":133880,"ukprn":10003614,"isAccreditedProvider":true,"accreditedProviderId":1514,"address":{"addressLine1":"University of Winchester","addressLine2":"Sparkford Road","town":"Winchester","county":"Hampshire","postcode":"SO22 4NR"},"location":{"latitude":51.06000179999999,"longitude":-1.3267404,"regionCode":"J"},"contact":{"website":"www.winchester.ac.uk/pgce","email":"admissions@winchester.ac.uk","telephone":"01962 827234"},"canSponsorSkilledWorkerVisa":false,"canSponsorStudentVisa":true},{"id":"8cdfb292-e199-4659-9d9d-40f45dcb9b80","name":"University of Wolverhampton","code":"W75","type":"university","ukprn":10007166,"isAccreditedProvider":true,"accreditedProviderId":1567,"address":{"addressLine1":"Gorway Road","town":"Walsall","postcode":"WS1 3BD"},"location":{"latitude":52.571979,"longitude":-1.9703288,"regionCode":"F"},"contact":{"website":"http://www.wlv.ac.uk/teaching","email":"enquiries@wlv.ac.uk","telephone":"01902 321000"},"canSponsorSkilledWorkerVisa":false,"canSponsorStudentVisa":true},{"id":"5b9bf2f6-47b2-430a-a1ba-af62b018d66f","name":"University of Worcester","code":"W80","type":"university","urn":133911,"ukprn":10007139,"isAccreditedProvider":true,"accreditedProviderId":1535,"address":{"addressLine1":"Henwick Grove","town":"Worcester","county":"Worcestershire","postcode":"WR2 6AJ"},"location":{"latitude":52.1973659,"longitude":-2.243085,"regionCode":"F"},"contact":{"website":"https://www.worcester.ac.uk/about/academic-schools/school-of-education/get-into-teaching-at-worcester/home.aspx","email":"admissionsb@worc.ac.uk","telephone":"01905 855111"},"canSponsorSkilledWorkerVisa":false,"canSponsorStudentVisa":true},{"id":"1e778e51-5748-4036-9310-b8cfb88c9da8","name":"University of York","code":"Y50","type":"university","ukprn":10007167,"isAccreditedProvider":true,"accreditedProviderId":1568,"address":{"addressLine1":"University of York","addressLine2":"Department of Education","town":"York","county":"North Yorkshire","postcode":"YO10 5DD"},"location":{"latitude":53.9484189,"longitude":-1.0535444,"regionCode":"D"},"contact":{"website":"https://www.york.ac.uk/education/pgce/","email":"education-pgce-admissions@york.ac.uk","telephone":"01904 323460"},"canSponsorSkilledWorkerVisa":false,"canSponsorStudentVisa":true},{"id":"5084524f-22ca-46a5-902f-6aef18adc644","name":"Wandsworth Primary Schools Consortium","code":"W14","type":"scitt","urn":101001,"ukprn":10046788,"isAccreditedProvider":true,"accreditedProviderId":5546,"address":{"addressLine1":"Wandsworth SCITT","addressLine2":"St Mary's RC Primary School","addressLine3":"7 St Joseph's Street","town":"London","postcode":"SW8 4EN"},"location":{"latitude":51.4765679,"longitude":-0.1461812,"regionCode":"H"},"contact":{"website":"http://www.scitt.co.uk","email":"wpsc@scitt.wandsworth.sch.uk","telephone":"0203 488 2805"},"canSponsorSkilledWorkerVisa":false,"canSponsorStudentVisa":false},{"id":"e737f9b3-37ab-4f99-92f5-162d19cd51fb","name":"Wessex Schools Training Partnership","code":"W34","type":"scitt","ukprn":10005145,"isAccreditedProvider":false,"address":{"addressLine1":"c/o Poole High School","addressLine2":"Wimborne Road","town":"Bournemouth","county":"Dorset","postcode":"BH11 2BW"},"location":{"latitude":50.7621377,"longitude":-1.9283478,"regionCode":"K"},"contact":{"website":"www.wessexschools.uk","email":"WSTP@poolehigh.poole.sch.uk","telephone":"01202662038"},"canSponsorSkilledWorkerVisa":false,"canSponsorStudentVisa":false},{"id":"edbc2fa1-693f-4217-8e7e-25e41fca80e2","name":"West Essex SCITT","code":"2BB","type":"scitt","ukprn":10067433,"isAccreditedProvider":true,"accreditedProviderId":5707,"address":{"addressLine1":"West Essex SCITT","addressLine2":"St John's C of E Primary School","addressLine3":"High Road","town":"Buckhurst","county":"Essex","postcode":"IG9 5RX"},"location":{"latitude":51.6296332,"longitude":0.0343515,"regionCode":"G"},"contact":{"website":"http://www.westessexscitt.co.uk/About-Us/","email":"vsmullen@efspt.org","telephone":"02033252809"},"canSponsorSkilledWorkerVisa":false,"canSponsorStudentVisa":false},{"id":"a28660fa-74c8-4e5b-bcdc-91e154c0213f","name":"West Midlands Consortium","code":"W53","type":"scitt","ukprn":10006894,"isAccreditedProvider":true,"accreditedProviderId":5548,"address":{"addressLine1":"Thomas Telford School (Lead School)","addressLine2":"Old Park","town":"Telford","county":"Shropshire","postcode":"TF3 4NW"},"location":{"latitude":52.6776784,"longitude":-2.458211700000001,"regionCode":"F"},"contact":{"website":"https://wmc.ttsonline.net/","email":"ssplant@ttsonline.net","telephone":"01952 200000"},"canSponsorSkilledWorkerVisa":false,"canSponsorStudentVisa":false},{"id":"f55a2f9c-479a-46e3-922e-bb20e48a5219","name":"Wildern Partnership","code":"1WH","type":"scitt","ukprn":10033371,"isAccreditedProvider":true,"address":{"addressLine1":"Wildern Partnership, Wildern School","addressLine2":"Wildern Lane","town":"Southampton","county":"Hampshire","postcode":"SO304EJ"},"location":{"latitude":50.9203157,"longitude":-1.3039747,"regionCode":"J"},"contact":{"website":"http://wildernpartnership.co.uk/","email":"scitt@wildernpartnership.co.uk","telephone":"01489779458"},"canSponsorSkilledWorkerVisa":false,"canSponsorStudentVisa":false},{"id":"eb4a5dfd-27fe-4edf-bb96-47efb1791b35","name":"Wirral Metropolitan College","code":"W73","type":"university","isAccreditedProvider":true,"address":{"addressLine1":"Conway Park","addressLine2":"Europa Boulevard","town":"Birkenhead","county":"Wirral","postcode":"CH41 4NT"},"location":{"latitude":53.3930881,"longitude":-3.0214913,"regionCode":"B"},"contact":{"website":"https://www.wmc.ac.uk/courses/teaching-assessing","email":"enquiries@wmc.ac.uk","telephone":"01515517777"}},{"id":"6508f91b-e6a3-4429-808d-57e3fbe3ca30","name":"York St John University","code":"Y75","type":"university","urn":133914,"ukprn":10007713,"isAccreditedProvider":true,"accreditedProviderId":1569,"address":{"addressLine1":"Lord Mayor's Walk","town":"York","postcode":"YO31 7EX"},"location":{"latitude":53.9648443,"longitude":-1.0795427,"regionCode":"D"},"contact":{"website":"http://www.yorksj.ac.uk","email":"pgce@yorksj.ac.uk","telephone":"01904 876598"},"canSponsorSkilledWorkerVisa":false,"canSponsorStudentVisa":true},{"id":"d57453b5-4f0d-4120-b1eb-8ff2fe631d4c","name":"Yorkshire and Humber Teacher Training","code":"2B2","type":"scitt","ukprn":10058237,"isAccreditedProvider":false,"address":{"addressLine1":"Yorkshire & Humber Teacher Training, c/o Bricknell Primary School","addressLine2":"Bricknell Avenue","town":"Hull","postcode":"HU5 4ET"},"location":{"latitude":53.7620315,"longitude":-0.3788228,"regionCode":"D"},"contact":{"website":"http://yhtt.ac.uk","email":"info@yhtt.co.uk","telephone":"01482686699"},"canSponsorSkilledWorkerVisa":false,"canSponsorStudentVisa":false},{"id":"21d65d1c-3438-463d-badf-3f2ab084169a","name":"Yorkshire Wolds Teacher Training","code":"2EV","type":"scitt","ukprn":10058551,"isAccreditedProvider":true,"accreditedProviderId":5712,"address":{"addressLine1":"The Education Alliance","addressLine2":"East Dale Road","town":"North","county":"East Riding of Yorkshire","postcode":"HU14 3HS"},"location":{"latitude":53.7277499,"longitude":-0.5339665,"regionCode":"D"},"contact":{"website":"ywtt.org.uk","email":"sally.cooper@ywtt.org.uk","telephone":"01482 636720"},"canSponsorSkilledWorkerVisa":false,"canSponsorStudentVisa":false}]
